Post_created_time,location,GoogleMap,Latitude,Longitude
2019-09-02 07:04:00,제주도 한경면,"https://maps.google.com/maps?q=33.3444150585,126.1869094258&ll=33.3444150585,126.1869094258",33.3444150585,126.1869094258
2019-09-02 09:52:05,원주기업도시,"https://maps.google.com/maps?q=37.385389614,127.8906463367&ll=37.385389614,127.8906463367",37.385389614,127.8906463367
2019-09-02 10:24:05,Giày thể thao Hạ Long,"https://maps.google.com/maps?q=20.95285,107.08983&ll=20.95285,107.08983",20.95285,107.08983
2019-09-02 11:24:02,아트밸리cc,"https://maps.google.com/maps?q=36.818527,127.405745&ll=36.818527,127.405745",36.818527,127.405745
2019-09-02 16:19:02,Boracay on the Beach,"https://maps.google.com/maps?q=11.9490616628,121.9312959909&ll=11.9490616628,121.9312959909",11.9490616628,121.9312959909
2019-09-02 22:39:00,Songuri Pochoen,"https://maps.google.com/maps?q=37.8579134,127.1566913&ll=37.8579134,127.1566913",37.8579134,127.1566913
2019-09-02 23:11:02,고속도로 한복판,"https://maps.google.com/maps?q=37.013438027,127.1459029445&ll=37.013438027,127.1459029445",37.013438027,127.1459029445
2019-09-02 23:47:02,제주 남원리,"https://maps.google.com/maps?q=33.2772382049,126.7130236283&ll=33.2772382049,126.7130236283",33.2772382049,126.7130236283
2019-09-02 23:51:02,서울에서 부산가는 겁나빠른 KTX,"https://maps.google.com/maps?q=37.5482975753,126.9711057707&ll=37.5482975753,126.9711057707",37.5482975753,126.9711057707
2019-09-03 00:25:02,지리산 엄천강 파워 래프팅,"https://maps.google.com/maps?q=35.4421360927,127.7474066903&ll=35.4421360927,127.7474066903",35.4421360927,127.7474066903
2019-09-03 00:40:00,함덕8길5 게스트하우스,"https://maps.google.com/maps?q=33.5428482727,126.6623800823&ll=33.5428482727,126.6623800823",33.5428482727,126.6623800823
2019-09-03 00:46:04,Jeju-do,"https://maps.google.com/maps?q=33.4597558033,126.33557443&ll=33.4597558033,126.33557443",33.4597558033,126.33557443
2019-09-03 01:25:00,동대구역,"https://maps.google.com/maps?q=35.8797222222,128.6292166667&ll=35.8797222222,128.6292166667",35.8797222222,128.6292166667
2019-09-03 01:51:02,"Cheonan, Korea","https://maps.google.com/maps?q=36.8064,127.152&ll=36.8064,127.152",36.8064,127.152
2019-09-03 02:40:03,제주도 한림,"https://maps.google.com/maps?q=33.3511974611,126.2758545791&ll=33.3511974611,126.2758545791",33.3511974611,126.2758545791
2019-09-03 04:03:01,영종운서역 솔리움 센텀스카이 오피스텔,"https://maps.google.com/maps?q=37.4536,126.732&ll=37.4536,126.732",37.4536,126.732
2019-09-03 04:38:04,Jeju International Airport,"https://maps.google.com/maps?q=33.5065775242,126.4930393928&ll=33.5065775242,126.4930393928",33.5065775242,126.4930393928
2019-09-03 05:36:00,부천에스네일,"https://maps.google.com/maps?q=37.5034468221,126.7693841494&ll=37.5034468221,126.7693841494",37.5034468221,126.7693841494
2019-09-03 05:49:03,"Seoul, South Korea","https://maps.google.com/maps?q=37.5689,126.977&ll=37.5689,126.977",37.5689,126.977
2019-09-03 06:26:05,후타리,"https://maps.google.com/maps?q=37.5620479812,127.0824408531&ll=37.5620479812,127.0824408531",37.5620479812,127.0824408531
2019-09-03 07:12:04,CafeStory,"https://maps.google.com/maps?q=37.5548286438,127.2413253784&ll=37.5548286438,127.2413253784",37.5548286438,127.2413253784
2019-09-03 07:28:02,林口高球場,"https://maps.google.com/maps?q=25.1087296066,121.385312968&ll=25.1087296066,121.385312968",25.1087296066,121.385312968
2019-09-03 07:41:00,카페오드리,"https://maps.google.com/maps?q=33.3569409889,126.29725236&ll=33.3569409889,126.29725236",33.3569409889,126.29725236
2019-09-03 08:01:05,제주항 국제여객터미널 (Jeju International Ferry Terminal),"https://maps.google.com/maps?q=33.5260727411,126.5437559241&ll=33.5260727411,126.5437559241",33.5260727411,126.5437559241
2019-09-03 08:41:00,인구해변,"https://maps.google.com/maps?q=37.9675223521,128.762327652&ll=37.9675223521,128.762327652",37.9675223521,128.762327652
2019-09-03 09:00:00,광주남구봉선동,"https://maps.google.com/maps?q=35.1288970535,126.9049722829&ll=35.1288970535,126.9049722829",35.1288970535,126.9049722829
2019-09-03 09:05:01,제주시 동문시장,"https://maps.google.com/maps?q=33.5122414467,126.5273609739&ll=33.5122414467,126.5273609739",33.5122414467,126.5273609739
2019-09-03 09:23:02,Jeju,"https://maps.google.com/maps?q=33.5097,126.522&ll=33.5097,126.522",33.5097,126.522
2019-09-03 09:45:03,지친일상속에서,"https://maps.google.com/maps?q=37.4669021268,126.9310655562&ll=37.4669021268,126.9310655562",37.4669021268,126.9310655562
2019-09-03 09:53:01,인천논현역,"https://maps.google.com/maps?q=37.400641,126.722495&ll=37.400641,126.722495",37.400641,126.722495
2019-09-03 09:57:05,100일간의필라테스,"https://maps.google.com/maps?q=37.557127,127.080639&ll=37.557127,127.080639",37.557127,127.080639
2019-09-03 09:57:05,낙동강 철교 (Nakdonggang(riv.) Railroad Bridge),"https://maps.google.com/maps?q=35.3816014648,128.8187401071&ll=35.3816014648,128.8187401071",35.3816014648,128.8187401071
2019-09-03 10:06:04,Yeongdeok,"https://maps.google.com/maps?q=36.4151,129.366&ll=36.4151,129.366",36.4151,129.366
2019-09-03 10:13:04,별이네펫,"https://maps.google.com/maps?q=37.7055410201,127.2017200291&ll=37.7055410201,127.2017200291",37.7055410201,127.2017200291
2019-09-03 11:05:03,에코그린리조트,"https://maps.google.com/maps?q=33.4354149448,126.29151253&ll=33.4354149448,126.29151253",33.4354149448,126.29151253
2019-09-03 13:23:05,Hong Kong Cultural Centre,"https://maps.google.com/maps?q=22.2939661519,114.1705702389&ll=22.2939661519,114.1705702389",22.2939661519,114.1705702389
2019-09-03 13:42:01,삼교리동치미막국수 춘천점,"https://maps.google.com/maps?q=37.886794,127.751748&ll=37.886794,127.751748",37.886794,127.751748
2019-09-03 14:12:05,잔다냥수원본점,"https://maps.google.com/maps?q=37.2842,127.019&ll=37.2842,127.019",37.2842,127.019
2019-09-03 14:52:04,Seamarq Hotel,"https://maps.google.com/maps?q=37.7979650721,128.9154070323&ll=37.7979650721,128.9154070323",37.7979650721,128.9154070323
2019-09-03 17:47:03,Hotel Scarboro,"https://maps.google.com/maps?q=33.2340211631,126.3689517975&ll=33.2340211631,126.3689517975",33.2340211631,126.3689517975
2019-09-03 21:59:01,Jeju-do,"https://maps.google.com/maps?q=33.4597558033,126.33557443&ll=33.4597558033,126.33557443",33.4597558033,126.33557443
2019-09-03 22:09:02,"Seoul, South Korea","https://maps.google.com/maps?q=37.5689,126.977&ll=37.5689,126.977",37.5689,126.977
2019-09-03 22:16:02,아소재,"https://maps.google.com/maps?q=35.8302935824,128.1882956318&ll=35.8302935824,128.1882956318",35.8302935824,128.1882956318
2019-09-03 22:30:05,국군대전병원,"https://maps.google.com/maps?q=36.39724,127.353314&ll=36.39724,127.353314",36.39724,127.353314
2019-09-03 22:32:00,김포국제공항 (Gimpo International Airport - GMP),"https://maps.google.com/maps?q=37.5635617989,126.8018817902&ll=37.5635617989,126.8018817902",37.5635617989,126.8018817902
2019-09-03 22:54:03,비오는 거리,"https://maps.google.com/maps?q=37.5698238,127.0753092&ll=37.5698238,127.0753092",37.5698238,127.0753092
2019-09-03 23:34:05,Busan 부산,"https://maps.google.com/maps?q=35.155021151,129.1180443764&ll=35.155021151,129.1180443764",35.155021151,129.1180443764
2019-09-03 23:52:05,광령1리,"https://maps.google.com/maps?q=33.4605928,126.4362461&ll=33.4605928,126.4362461",33.4605928,126.4362461
2019-09-04 00:04:00,Jungmun Jeju,"https://maps.google.com/maps?q=33.2470096,126.4151625&ll=33.2470096,126.4151625",33.2470096,126.4151625
2019-09-04 00:21:01,Paju,"https://maps.google.com/maps?q=37.7611,126.775&ll=37.7611,126.775",37.7611,126.775
2019-09-04 00:31:01,반포 한강 공원,"https://maps.google.com/maps?q=37.511620579,126.9982379558&ll=37.511620579,126.9982379558",37.511620579,126.9982379558
2019-09-04 00:49:01,동천동,"https://maps.google.com/maps?q=37.3408371517,127.097693371&ll=37.3408371517,127.097693371",37.3408371517,127.097693371
2019-09-04 01:10:03,용두암,"https://maps.google.com/maps?q=33.515272478,126.511735378&ll=33.515272478,126.511735378",33.515272478,126.511735378
2019-09-04 01:12:04,선한미소천연염색공방,"https://maps.google.com/maps?q=33.2967597,126.6066985&ll=33.2967597,126.6066985",33.2967597,126.6066985
2019-09-04 01:28:04,공단떡볶이,"https://maps.google.com/maps?q=37.4095331264,126.6946781436&ll=37.4095331264,126.6946781436",37.4095331264,126.6946781436
2019-09-04 01:30:00,제주 남원리,"https://maps.google.com/maps?q=33.2772382049,126.7130236283&ll=33.2772382049,126.7130236283",33.2772382049,126.7130236283
2019-09-04 01:32:05,Anseong,"https://maps.google.com/maps?q=37.0078,127.276&ll=37.0078,127.276",37.0078,127.276
2019-09-04 01:34:05,홍대 이름모를 까페,"https://maps.google.com/maps?q=37.5549162459,126.926593781&ll=37.5549162459,126.926593781",37.5549162459,126.926593781
2019-09-04 01:50:03,애월 애파소,"https://maps.google.com/maps?q=33.4644652617,126.3197547197&ll=33.4644652617,126.3197547197",33.4644652617,126.3197547197
2019-09-04 02:01:01,퀸틸리스,"https://maps.google.com/maps?q=33.2231239609,126.2582801027&ll=33.2231239609,126.2582801027",33.2231239609,126.2582801027
2019-09-04 02:13:02,Jeju Island,"https://maps.google.com/maps?q=33.3656,126.5281&ll=33.3656,126.5281",33.3656,126.5281
2019-09-04 02:15:03,롯데시티호텔,"https://maps.google.com/maps?q=37.5445135208,126.9507953525&ll=37.5445135208,126.9507953525",37.5445135208,126.9507953525
2019-09-04 02:28:00,엉또폭포,"https://maps.google.com/maps?q=33.2681957532,126.4990479114&ll=33.2681957532,126.4990479114",33.2681957532,126.4990479114
2019-09-04 02:32:02,THAN댄,"https://maps.google.com/maps?q=37.6494744103,126.7849222056&ll=37.6494744103,126.7849222056",37.6494744103,126.7849222056
2019-09-04 02:32:02,아그리나요트,"https://maps.google.com/maps?q=30.7512777763,127.96875&ll=30.7512777763,127.96875",30.7512777763,127.96875
2019-09-04 02:38:02,제주나무카페,"https://maps.google.com/maps?q=33.4561306102,126.7105049048&ll=33.4561306102,126.7105049048",33.4561306102,126.7105049048
2019-09-04 02:58:01,서프랩,"https://maps.google.com/maps?q=37.9347545661,128.7889909744&ll=37.9347545661,128.7889909744",37.9347545661,128.7889909744
2019-09-04 02:59:01,서울올림픽주경기장,"https://maps.google.com/maps?q=37.5158888889,127.07275&ll=37.5158888889,127.07275",37.5158888889,127.07275
2019-09-04 03:30:01,제주도 애월읍,"https://maps.google.com/maps?q=33.4775373571,126.3626555382&ll=33.4775373571,126.3626555382",33.4775373571,126.3626555382
2019-09-04 03:38:04,울산광역시 울주군 범서읍,"https://maps.google.com/maps?q=35.5705142,129.243069&ll=35.5705142,129.243069",35.5705142,129.243069
2019-09-04 03:43:03,수영인의 마을,"https://maps.google.com/maps?q=37.6981073188,127.4892872477&ll=37.6981073188,127.4892872477",37.6981073188,127.4892872477
2019-09-04 03:45:02,그라운드노리,"https://maps.google.com/maps?q=37.646878,127.305707&ll=37.646878,127.305707",37.646878,127.305707
2019-09-04 03:56:03,서초 푸르지오 써밋,"https://maps.google.com/maps?q=37.5012657783,127.0207285881&ll=37.5012657783,127.0207285881",37.5012657783,127.0207285881
2019-09-04 04:45:04,이건라움청주,"https://maps.google.com/maps?q=36.6304587211,127.4844346081&ll=36.6304587211,127.4844346081",36.6304587211,127.4844346081
2019-09-04 04:48:03,포천 송우리,"https://maps.google.com/maps?q=37.8281905968,127.1463003104&ll=37.8281905968,127.1463003104",37.8281905968,127.1463003104
2019-09-04 04:56:05,보리나주곰탕,"https://maps.google.com/maps?q=37.693741,126.90202&ll=37.693741,126.90202",37.693741,126.90202
2019-09-04 05:02:00,삼송역,"https://maps.google.com/maps?q=37.6530388889,126.8954611111&ll=37.6530388889,126.8954611111",37.6530388889,126.8954611111
2019-09-04 05:10:00,LOTTE Hotel Busan 롯데호텔부산,"https://maps.google.com/maps?q=35.156788146,129.0556755093&ll=35.156788146,129.0556755093",35.156788146,129.0556755093
2019-09-04 05:27:00,Hongcheon,"https://maps.google.com/maps?q=37.697,127.889&ll=37.697,127.889",37.697,127.889
2019-09-04 05:32:05,Jangseong,"https://maps.google.com/maps?q=35.3018,126.785&ll=35.3018,126.785",35.3018,126.785
2019-09-04 05:34:01,지오디바니일산,"https://maps.google.com/maps?q=None,None&ll=None,None",None,None
2019-09-04 05:48:05,배재고등학교,"https://maps.google.com/maps?q=37.5560699496,127.1505676875&ll=37.5560699496,127.1505676875",37.5560699496,127.1505676875
2019-09-04 05:54:04,Jeju-do,"https://maps.google.com/maps?q=33.4597558033,126.33557443&ll=33.4597558033,126.33557443",33.4597558033,126.33557443
2019-09-04 05:57:04,효신교통,"https://maps.google.com/maps?q=37.578157,126.818918&ll=37.578157,126.818918",37.578157,126.818918
2019-09-04 06:03:00,Gimpo Domestic Departure Hall,"https://maps.google.com/maps?q=37.5589199311,126.8028111247&ll=37.5589199311,126.8028111247",37.5589199311,126.8028111247
2019-09-04 06:11:04,Hotel Arte 호텔 아르떼,"https://maps.google.com/maps?q=37.2824,127.018&ll=37.2824,127.018",37.2824,127.018
2019-09-04 06:40:00,카페오드리,"https://maps.google.com/maps?q=33.3569409889,126.29725236&ll=33.3569409889,126.29725236",33.3569409889,126.29725236
2019-09-04 06:47:01,장안대학교,"https://maps.google.com/maps?q=37.2132239181,126.9458599018&ll=37.2132239181,126.9458599018",37.2132239181,126.9458599018
2019-09-04 06:51:04,중구,"https://maps.google.com/maps?q=37.5559222222,126.9703472222&ll=37.5559222222,126.9703472222",37.5559222222,126.9703472222
2019-09-04 06:52:04,益昇環球 珠寶批發 寶石 翡翠 線上拍賣,"https://maps.google.com/maps?q=25.07123,121.51337&ll=25.07123,121.51337",25.07123,121.51337
2019-09-04 06:53:02,Jeju-do,"https://maps.google.com/maps?q=33.4597558033,126.33557443&ll=33.4597558033,126.33557443",33.4597558033,126.33557443
2019-09-04 06:56:04,우리집내구역,"https://maps.google.com/maps?q=34.9427128733,127.5224025033&ll=34.9427128733,127.5224025033",34.9427128733,127.5224025033
2019-09-04 07:01:02,방구석,"https://maps.google.com/maps?q=37.5978982,126.9068502&ll=37.5978982,126.9068502",37.5978982,126.9068502
2019-09-04 07:05:03,Jeju,"https://maps.google.com/maps?q=33.5097,126.522&ll=33.5097,126.522",33.5097,126.522
2019-09-04 07:08:05,카페오드리,"https://maps.google.com/maps?q=33.3569409889,126.29725236&ll=33.3569409889,126.29725236",33.3569409889,126.29725236
2019-09-04 07:15:05,Suwon,"https://maps.google.com/maps?q=37.2824,127.0183&ll=37.2824,127.0183",37.2824,127.0183
2019-09-04 07:29:03,"부산 광안리해수욕장 - 廣安里海水浴場 GwangalliBeach, Busan, South Korea","https://maps.google.com/maps?q=35.1533377988,129.1194740619&ll=35.1533377988,129.1194740619",35.1533377988,129.1194740619
2019-09-04 07:34:04,YEHA Tour - JEJU TOUR,"https://maps.google.com/maps?q=33.4849321696,126.5300130844&ll=33.4849321696,126.5300130844",33.4849321696,126.5300130844
2019-09-04 08:00:00,Jeju,"https://maps.google.com/maps?q=33.5097,126.522&ll=33.5097,126.522",33.5097,126.522
2019-09-04 08:04:02,Pyeongtaek,"https://maps.google.com/maps?q=36.9927,127.0868&ll=36.9927,127.0868",36.9927,127.0868
2019-09-04 08:05:03,Busan 부산,"https://maps.google.com/maps?q=35.155021151,129.1180443764&ll=35.155021151,129.1180443764",35.155021151,129.1180443764
2019-09-04 08:05:05,광주광역시두암동,"https://maps.google.com/maps?q=35.1732692,126.9252885&ll=35.1732692,126.9252885",35.1732692,126.9252885
2019-09-04 08:10:00,제주 위미,"https://maps.google.com/maps?q=33.2750948037,126.6664359248&ll=33.2750948037,126.6664359248",33.2750948037,126.6664359248
2019-09-04 08:10:02,경기 평택시 동삭동,"https://maps.google.com/maps?q=37.0122835673,127.0997173699&ll=37.0122835673,127.0997173699",37.0122835673,127.0997173699
2019-09-04 08:26:05,서울랜드,"https://maps.google.com/maps?q=None,None&ll=None,None",None,None
2019-09-04 08:37:03,넙빌레하우스 (Nubbille House),"https://maps.google.com/maps?q=33.2691613919,126.6485517665&ll=33.2691613919,126.6485517665",33.2691613919,126.6485517665
2019-09-04 08:38:02,수성교 (Bridge 8),"https://maps.google.com/maps?q=35.8614394563,128.6084032059&ll=35.8614394563,128.6084032059",35.8614394563,128.6084032059
2019-09-04 08:55:01,Ydbcoffee,"https://maps.google.com/maps?q=37.2336969,127.200629&ll=37.2336969,127.200629",37.2336969,127.200629
2019-09-04 09:03:02,기업성장센터,"https://maps.google.com/maps?q=37.41098,127.09447&ll=37.41098,127.09447",37.41098,127.09447
2019-09-04 09:09:00,Hotel Scarboro,"https://maps.google.com/maps?q=33.2340211631,126.3689517975&ll=33.2340211631,126.3689517975",33.2340211631,126.3689517975
2019-09-04 09:19:03,천안시청,"https://maps.google.com/maps?q=None,None&ll=None,None",None,None
2019-09-04 09:22:02,합정역,"https://maps.google.com/maps?q=37.5495527885,126.9140161076&ll=37.5495527885,126.9140161076",37.5495527885,126.9140161076
2019-09-04 09:32:02,디지털미디어시티역,"https://maps.google.com/maps?q=37.57654,126.90132&ll=37.57654,126.90132",37.57654,126.90132
2019-09-04 09:39:00,비컴뷰티,"https://maps.google.com/maps?q=37.552129476,126.8495678898&ll=37.552129476,126.8495678898",37.552129476,126.8495678898
2019-09-04 09:39:00,Yvette Leblanc Flower Studio,"https://maps.google.com/maps?q=37.503900223,127.026957282&ll=37.503900223,127.026957282",37.503900223,127.026957282
2019-09-04 09:41:01,홍대요가쿨라,"https://maps.google.com/maps?q=37.5562384562,126.9249972768&ll=37.5562384562,126.9249972768",37.5562384562,126.9249972768
2019-09-04 09:50:05,Inthemass,"https://maps.google.com/maps?q=37.5652966981,127.0409202576&ll=37.5652966981,127.0409202576",37.5652966981,127.0409202576
2019-09-04 09:51:01,위드쿠잉,"https://maps.google.com/maps?q=36.6487644,127.4088939&ll=36.6487644,127.4088939",36.6487644,127.4088939
2019-09-04 09:52:05,법수치계곡,"https://maps.google.com/maps?q=37.910268,128.618588&ll=37.910268,128.618588",37.910268,128.618588
2019-09-04 09:53:03,IGH펜션,"https://maps.google.com/maps?q=33.363916,126.193435&ll=33.363916,126.193435",33.363916,126.193435
2019-09-04 10:02:03,시리우스 호텔,"https://maps.google.com/maps?q=33.4933658,126.4909789&ll=33.4933658,126.4909789",33.4933658,126.4909789
2019-09-04 10:06:01,CLB Tài năng Rainbow Quốc Oai,"https://maps.google.com/maps?q=21.0385245323,105.8335518837&ll=21.0385245323,105.8335518837",21.0385245323,105.8335518837
2019-09-04 10:07:02,"Ushuiai, Ibiza","https://maps.google.com/maps?q=38.8849038269,1.4053005514&ll=38.8849038269,1.4053005514",38.8849038269,1.4053005514
2019-09-04 10:08:04,비산 삼성 래미안,"https://maps.google.com/maps?q=37.3991493386,126.9402224025&ll=37.3991493386,126.9402224025",37.3991493386,126.9402224025
2019-09-04 10:11:02,상현역,"https://maps.google.com/maps?q=37.2971915506,127.0694586968&ll=37.2971915506,127.0694586968",37.2971915506,127.0694586968
2019-09-04 10:14:01,어룡농원,"https://maps.google.com/maps?q=36.9304678857,127.1113298643&ll=36.9304678857,127.1113298643",36.9304678857,127.1113298643
2019-09-04 10:19:00,첨벙첨벙 눈물바다,"https://maps.google.com/maps?q=37.4768826286,126.9087900857&ll=37.4768826286,126.9087900857",37.4768826286,126.9087900857
2019-09-04 10:21:02,Samsung Nano City Hwasung Campus,"https://maps.google.com/maps?q=37.2170609841,127.0771418492&ll=37.2170609841,127.0771418492",37.2170609841,127.0771418492
2019-09-04 10:33:01,Banyan Tree - Club & Spa - Seoul,"https://maps.google.com/maps?q=37.5503867886,127.0014934264&ll=37.5503867886,127.0014934264",37.5503867886,127.0014934264
2019-09-04 10:37:05,Gimpo International Airport - 金浦国际机场 - 김포공항,"https://maps.google.com/maps?q=37.5663445497,126.8013426898&ll=37.5663445497,126.8013426898",37.5663445497,126.8013426898
2019-09-04 10:44:01,Yongin,"https://maps.google.com/maps?q=37.2361,127.201&ll=37.2361,127.201",37.2361,127.201
2019-09-04 10:51:03,주식회사 세광그린푸드,"https://maps.google.com/maps?q=None,None&ll=None,None",None,None
2019-09-04 10:57:05,연남동,"https://maps.google.com/maps?q=37.562205,126.9261783333&ll=37.562205,126.9261783333",37.562205,126.9261783333
2019-09-04 10:57:05,벼리게스트하우스&cafe,"https://maps.google.com/maps?q=33.5238849,126.86466353&ll=33.5238849,126.86466353",33.5238849,126.86466353
2019-09-04 11:11:02,카페더그레이스,"https://maps.google.com/maps?q=33.3214235274,126.241140993&ll=33.3214235274,126.241140993",33.3214235274,126.241140993
2019-09-04 11:26:05,강정포구,"https://maps.google.com/maps?q=33.232148379,126.4779642&ll=33.232148379,126.4779642",33.232148379,126.4779642
2019-09-04 11:33:03,Electric Daisy Carnival - EDC Korea,"https://maps.google.com/maps?q=37.4339767205,127.0196342468&ll=37.4339767205,127.0196342468",37.4339767205,127.0196342468
2019-09-04 11:50:02,천흥,"https://maps.google.com/maps?q=36.873912,127.212286&ll=36.873912,127.212286",36.873912,127.212286
2019-09-04 12:00:02,샌더스커피,"https://maps.google.com/maps?q=37.623692,126.8433193&ll=37.623692,126.8433193",37.623692,126.8433193
2019-09-04 12:07:00,대평포구,"https://maps.google.com/maps?q=33.237581,126.362027&ll=33.237581,126.362027",33.237581,126.362027
2019-09-04 12:09:00,서귀포시,"https://maps.google.com/maps?q=33.2541,126.56&ll=33.2541,126.56",33.2541,126.56
2019-09-04 12:24:02,MLP Surf,"https://maps.google.com/maps?q=36.7885300352,126.1449929407&ll=36.7885300352,126.1449929407",36.7885300352,126.1449929407
2019-09-04 12:29:03,해적짐 - Pirates Gym,"https://maps.google.com/maps?q=37.4967161823,126.8440675736&ll=37.4967161823,126.8440675736",37.4967161823,126.8440675736
2019-09-04 12:39:04,김포국제공항 (Gimpo International Airport - GMP),"https://maps.google.com/maps?q=37.5635617989,126.8018817902&ll=37.5635617989,126.8018817902",37.5635617989,126.8018817902
2019-09-04 13:12:05,Donghae,"https://maps.google.com/maps?q=37.5229970891,129.1129737815&ll=37.5229970891,129.1129737815",37.5229970891,129.1129737815
2019-09-04 13:32:04,중동맛집,"https://maps.google.com/maps?q=37.4986,126.775587&ll=37.4986,126.775587",37.4986,126.775587
2019-09-04 13:42:02,보길도,"https://maps.google.com/maps?q=34.163963772,126.6022120162&ll=34.163963772,126.6022120162",34.163963772,126.6022120162
2019-09-04 13:47:01,분당구 정자동,"https://maps.google.com/maps?q=37.3696417482,127.1060191315&ll=37.3696417482,127.1060191315",37.3696417482,127.1060191315
2019-09-04 13:48:04,서울시 서초구 서초동 어딘가,"https://maps.google.com/maps?q=37.4827240909,127.0076830835&ll=37.4827240909,127.0076830835",37.4827240909,127.0076830835
2019-09-04 13:50:02,속초 설악워터피아,"https://maps.google.com/maps?q=37.5643844,127.0786151&ll=37.5643844,127.0786151",37.5643844,127.0786151
2019-09-04 13:58:00,면목동 어디선가,"https://maps.google.com/maps?q=37.58848578,127.09333296&ll=37.58848578,127.09333296",37.58848578,127.09333296
2019-09-04 14:04:02,벨라시타 BellaCitta,"https://maps.google.com/maps?q=37.6420388211,126.7918400497&ll=37.6420388211,126.7918400497",37.6420388211,126.7918400497
2019-09-04 14:04:04,서운동산,"https://maps.google.com/maps?q=37.7719304016,127.2024928317&ll=37.7719304016,127.2024928317",37.7719304016,127.2024928317
2019-09-04 14:16:00,딸기가좋아,"https://maps.google.com/maps?q=37.521750442,126.7044925256&ll=37.521750442,126.7044925256",37.521750442,126.7044925256
2019-09-04 14:23:01,타요키즈카페보라매,"https://maps.google.com/maps?q=37.4911968792,126.92422264&ll=37.4911968792,126.92422264",37.4911968792,126.92422264
2019-09-04 14:39:02,제주에서돌고래를만난다면,"https://maps.google.com/maps?q=33.528576,126.870845&ll=33.528576,126.870845",33.528576,126.870845
2019-09-04 14:45:01,대정읍,"https://maps.google.com/maps?q=33.22165214,126.25218947&ll=33.22165214,126.25218947",33.22165214,126.25218947
2019-09-04 14:53:01,텐도씨,"https://maps.google.com/maps?q=None,None&ll=None,None",None,None
2019-09-04 14:53:04,철원 양평해장국,"https://maps.google.com/maps?q=37.6475982716,126.7611997774&ll=37.6475982716,126.7611997774",37.6475982716,126.7611997774
2019-09-04 14:53:05,원주따뚜경기장,"https://maps.google.com/maps?q=37.3360866725,127.9466787853&ll=37.3360866725,127.9466787853",37.3360866725,127.9466787853
2019-09-04 14:56:03,이호테우 목마등대,"https://maps.google.com/maps?q=33.5019173584,126.4528954241&ll=33.5019173584,126.4528954241",33.5019173584,126.4528954241
2019-09-04 14:59:05,인천공항 Incheon Airport,"https://maps.google.com/maps?q=37.4486940215,126.4511619873&ll=37.4486940215,126.4511619873",37.4486940215,126.4511619873
2019-09-04 15:53:01,법환동,"https://maps.google.com/maps?q=33.2371308584,126.5156331662&ll=33.2371308584,126.5156331662",33.2371308584,126.5156331662
2019-09-04 16:31:00,살롱드재즈,"https://maps.google.com/maps?q=35.1500722486,126.9184772372&ll=35.1500722486,126.9184772372",35.1500722486,126.9184772372
2019-09-04 16:49:00,제주도 애월읍,"https://maps.google.com/maps?q=33.4775373571,126.3626555382&ll=33.4775373571,126.3626555382",33.4775373571,126.3626555382
2019-09-04 17:16:05,새연교 (Saeyeon Bridge),"https://maps.google.com/maps?q=33.2392614446,126.558997731&ll=33.2392614446,126.558997731",33.2392614446,126.558997731
2019-09-04 17:44:01,제주도 표선,"https://maps.google.com/maps?q=33.3496456203,126.8121855113&ll=33.3496456203,126.8121855113",33.3496456203,126.8121855113
2019-09-04 21:07:01,김포국제공항 (Gimpo International Airport - GMP),"https://maps.google.com/maps?q=37.5635617989,126.8018817902&ll=37.5635617989,126.8018817902",37.5635617989,126.8018817902
2019-09-04 21:21:00,중랑천 벚꽃 길,"https://maps.google.com/maps?q=37.5690347625,127.075842618&ll=37.5690347625,127.075842618",37.5690347625,127.075842618
2019-09-04 22:05:03,진천 Ic,"https://maps.google.com/maps?q=36.8679954146,127.467220523&ll=36.8679954146,127.467220523",36.8679954146,127.467220523
2019-09-04 22:31:01,"Seoul, Korea","https://maps.google.com/maps?q=37.51502,127.01648&ll=37.51502,127.01648",37.51502,127.01648
2019-09-04 22:47:01,제주 함덕 서우봉 해변,"https://maps.google.com/maps?q=33.5427206966,126.6691673662&ll=33.5427206966,126.6691673662",33.5427206966,126.6691673662
2019-09-04 23:06:04,보길도,"https://maps.google.com/maps?q=34.163963772,126.6022120162&ll=34.163963772,126.6022120162",34.163963772,126.6022120162
2019-09-04 23:15:00,Gimpo,"https://maps.google.com/maps?q=37.6152,126.716&ll=37.6152,126.716",37.6152,126.716
2019-09-04 23:40:03,가파도/마라도 정기여객선 터미널,"https://maps.google.com/maps?q=33.210121,126.25841&ll=33.210121,126.25841",33.210121,126.25841
2019-09-04 23:48:00,Hanoi,"https://maps.google.com/maps?q=21.0245,105.84117&ll=21.0245,105.84117",21.0245,105.84117
2019-09-04 23:51:04,경기도 수원시,"https://maps.google.com/maps?q=37.2622222222,127.0288888889&ll=37.2622222222,127.0288888889",37.2622222222,127.0288888889
2019-09-04 23:54:00,Seogwipo,"https://maps.google.com/maps?q=33.2541,126.56&ll=33.2541,126.56",33.2541,126.56
2019-09-04 23:55:01,김포국제공항 (Gimpo International Airport - GMP),"https://maps.google.com/maps?q=37.5635617989,126.8018817902&ll=37.5635617989,126.8018817902",37.5635617989,126.8018817902
2019-09-04 23:58:02,Icheon,"https://maps.google.com/maps?q=37.272,127.435&ll=37.272,127.435",37.272,127.435
2019-09-05 00:04:00,Incheon International Airport Terminal 2,"https://maps.google.com/maps?q=37.4669784,126.4357369905&ll=37.4669784,126.4357369905",37.4669784,126.4357369905
2019-09-05 00:17:00,하나의식탁,"https://maps.google.com/maps?q=33.4977424689,126.5291529518&ll=33.4977424689,126.5291529518",33.4977424689,126.5291529518
2019-09-05 00:29:01,쌍문동,"https://maps.google.com/maps?q=37.6475137481,127.033908913&ll=37.6475137481,127.033908913",37.6475137481,127.033908913
2019-09-05 00:29:03,Hilton Busan - 힐튼 부산,"https://maps.google.com/maps?q=35.1978061208,129.2285674113&ll=35.1978061208,129.2285674113",35.1978061208,129.2285674113
2019-09-05 00:39:04,StayNamhae,"https://maps.google.com/maps?q=34.8219102614,127.8286914836&ll=34.8219102614,127.8286914836",34.8219102614,127.8286914836
2019-09-05 00:40:03,Jeonju,"https://maps.google.com/maps?q=35.8219,127.149&ll=35.8219,127.149",35.8219,127.149
2019-09-05 00:40:04,행정안전부,"https://maps.google.com/maps?q=36.4823449,127.2605623&ll=36.4823449,127.2605623",36.4823449,127.2605623
2019-09-05 00:45:00,Gangnam Seoul Korea,"https://maps.google.com/maps?q=37.5003008727,127.0265772745&ll=37.5003008727,127.0265772745",37.5003008727,127.0265772745
2019-09-05 00:46:01,MIDO Hostel,"https://maps.google.com/maps?q=33.2500641182,126.5663482976&ll=33.2500641182,126.5663482976",33.2500641182,126.5663482976
2019-09-05 00:47:01,서초동 어딘가,"https://maps.google.com/maps?q=37.4947983463,127.0147195914&ll=37.4947983463,127.0147195914",37.4947983463,127.0147195914
2019-09-05 00:48:03,PyeongChang,"https://maps.google.com/maps?q=37.3703,128.393&ll=37.3703,128.393",37.3703,128.393
2019-09-05 00:51:05,오렌지바다,"https://maps.google.com/maps?q=35.1513769074,129.1163874417&ll=35.1513769074,129.1163874417",35.1513769074,129.1163874417
2019-09-05 00:55:04,하나의식탁,"https://maps.google.com/maps?q=33.4977424689,126.5291529518&ll=33.4977424689,126.5291529518",33.4977424689,126.5291529518
2019-09-05 01:04:05,환상의 섬 Jeju Island,"https://maps.google.com/maps?q=33.4859666133,126.4898666841&ll=33.4859666133,126.4898666841",33.4859666133,126.4898666841
2019-09-05 01:20:02,행정안전부,"https://maps.google.com/maps?q=36.4823449,127.2605623&ll=36.4823449,127.2605623",36.4823449,127.2605623
2019-09-05 01:20:04,Jeju,"https://maps.google.com/maps?q=33.5097,126.522&ll=33.5097,126.522",33.5097,126.522
2019-09-05 01:25:01,인헌동 어딘가,"https://maps.google.com/maps?q=37.4737935174,126.9667682949&ll=37.4737935174,126.9667682949",37.4737935174,126.9667682949
2019-09-05 01:26:01,대구국제공항,"https://maps.google.com/maps?q=35.8999703959,128.6376266852&ll=35.8999703959,128.6376266852",35.8999703959,128.6376266852
2019-09-05 01:29:02,세인트존스호텔,"https://maps.google.com/maps?q=37.7912693484,128.921020031&ll=37.7912693484,128.921020031",37.7912693484,128.921020031
2019-09-05 01:35:01,애월항 앞바다,"https://maps.google.com/maps?q=33.47473549,126.33537361&ll=33.47473549,126.33537361",33.47473549,126.33537361
2019-09-05 01:35:01,애월항 앞바다,"https://maps.google.com/maps?q=33.47473549,126.33537361&ll=33.47473549,126.33537361",33.47473549,126.33537361
2019-09-05 01:39:00,경남 창녕군 남지읍,"https://maps.google.com/maps?q=35.3862382373,128.4777685006&ll=35.3862382373,128.4777685006",35.3862382373,128.4777685006
2019-09-05 01:39:01,여수,"https://maps.google.com/maps?q=34.7628834133,127.6471519347&ll=34.7628834133,127.6471519347",34.7628834133,127.6471519347
2019-09-05 01:55:02,용두암,"https://maps.google.com/maps?q=33.515272478,126.511735378&ll=33.515272478,126.511735378",33.515272478,126.511735378
2019-09-05 02:03:00,성산마씸,"https://maps.google.com/maps?q=33.4662040365,126.935093807&ll=33.4662040365,126.935093807",33.4662040365,126.935093807
2019-09-05 02:07:00,"Seoul, Korea","https://maps.google.com/maps?q=37.51502,127.01648&ll=37.51502,127.01648",37.51502,127.01648
2019-09-05 02:10:04,Yeongjongdo,"https://maps.google.com/maps?q=37.4842903,126.5344847&ll=37.4842903,126.5344847",37.4842903,126.5344847
2019-09-05 02:17:05,니나노제주,"https://maps.google.com/maps?q=33.4290775256,126.2646460533&ll=33.4290775256,126.2646460533",33.4290775256,126.2646460533
2019-09-05 02:20:05,BMW Driving Center,"https://maps.google.com/maps?q=37.462936662,126.4851665497&ll=37.462936662,126.4851665497",37.462936662,126.4851665497
2019-09-05 02:23:01,Jeju-do,"https://maps.google.com/maps?q=33.4597558033,126.33557443&ll=33.4597558033,126.33557443",33.4597558033,126.33557443
2019-09-05 02:23:03,Daegu,"https://maps.google.com/maps?q=35.8703,128.591&ll=35.8703,128.591",35.8703,128.591
2019-09-05 02:25:02,허브와 풍뎅이,"https://maps.google.com/maps?q=37.0078,127.276&ll=37.0078,127.276",37.0078,127.276
2019-09-05 02:26:05,Jungmun Beach,"https://maps.google.com/maps?q=33.2444495605,126.4145853856&ll=33.2444495605,126.4145853856",33.2444495605,126.4145853856
2019-09-05 02:29:00,거제도 바람의언덕,"https://maps.google.com/maps?q=37.6179268133,126.9138433982&ll=37.6179268133,126.9138433982",37.6179268133,126.9138433982
2019-09-05 02:29:01,동두천시 '경기북부어린이박물관',"https://maps.google.com/maps?q=37.9448804129,127.0641146729&ll=37.9448804129,127.0641146729",37.9448804129,127.0641146729
2019-09-05 02:31:02,혜자네한끼,"https://maps.google.com/maps?q=33.2634754062,126.5570287294&ll=33.2634754062,126.5570287294",33.2634754062,126.5570287294
2019-09-05 02:47:01,오산운암어딘가,"https://maps.google.com/maps?q=37.149475,127.0763695&ll=37.149475,127.0763695",37.149475,127.0763695
2019-09-05 02:52:03,형제해안로,"https://maps.google.com/maps?q=33.2277433449,126.303211057&ll=33.2277433449,126.303211057",33.2277433449,126.303211057
2019-09-05 02:53:04,구매항,"https://maps.google.com/maps?q=36.4250267841,126.4316459977&ll=36.4250267841,126.4316459977",36.4250267841,126.4316459977
2019-09-05 02:54:05,제주란나선물가게,"https://maps.google.com/maps?q=33.248566835,126.3221955299&ll=33.248566835,126.3221955299",33.248566835,126.3221955299
2019-09-05 03:09:01,카페 좋은날,"https://maps.google.com/maps?q=37.208023,127.111275&ll=37.208023,127.111275",37.208023,127.111275
2019-09-05 03:11:00,아이놀공,"https://maps.google.com/maps?q=33.5097,126.522&ll=33.5097,126.522",33.5097,126.522
2019-09-05 03:11:01,아름다운 충남 홍성,"https://maps.google.com/maps?q=36.5938925201,126.6731556902&ll=36.5938925201,126.6731556902",36.5938925201,126.6731556902
2019-09-05 03:12:02,"Busan, South Korea","https://maps.google.com/maps?q=35.1796,129.076&ll=35.1796,129.076",35.1796,129.076
2019-09-05 03:14:05,위미 르브아,"https://maps.google.com/maps?q=33.2737992798,126.6762436684&ll=33.2737992798,126.6762436684",33.2737992798,126.6762436684
2019-09-05 03:23:02,제주쉼표,"https://maps.google.com/maps?q=33.3952313249,126.2417687446&ll=33.3952313249,126.2417687446",33.3952313249,126.2417687446
2019-09-05 03:29:05,Gangnam Seoul Korea,"https://maps.google.com/maps?q=37.5003008727,127.0265772745&ll=37.5003008727,127.0265772745",37.5003008727,127.0265772745
2019-09-05 03:31:02,"Seoul, South Korea","https://maps.google.com/maps?q=37.5689,126.977&ll=37.5689,126.977",37.5689,126.977
2019-09-05 03:32:02,이천 베어스파크,"https://maps.google.com/maps?q=37.3320387164,127.457059203&ll=37.3320387164,127.457059203",37.3320387164,127.457059203
2019-09-05 03:35:00,영종대교휴게소,"https://maps.google.com/maps?q=37.553789174,126.6071635989&ll=37.553789174,126.6071635989",37.553789174,126.6071635989
2019-09-05 03:36:05,Gimpo,"https://maps.google.com/maps?q=37.6152,126.716&ll=37.6152,126.716",37.6152,126.716
2019-09-05 03:38:05,인천공항 Incheon Airport,"https://maps.google.com/maps?q=37.4486940215,126.4511619873&ll=37.4486940215,126.4511619873",37.4486940215,126.4511619873
2019-09-05 03:44:02,군포시 당정동,"https://maps.google.com/maps?q=37.3449403,126.9510876&ll=37.3449403,126.9510876",37.3449403,126.9510876
2019-09-05 03:47:05,태안 미조리좌대,"https://maps.google.com/maps?q=36.413901,126.430372&ll=36.413901,126.430372",36.413901,126.430372
2019-09-05 03:52:05,월정리해변,"https://maps.google.com/maps?q=33.5555759559,126.7965235098&ll=33.5555759559,126.7965235098",33.5555759559,126.7965235098
2019-09-05 03:55:02,"Incheon, Korea","https://maps.google.com/maps?q=37.4702,126.6343&ll=37.4702,126.6343",37.4702,126.6343
2019-09-05 04:00:00,인하대학교 - Inha University,"https://maps.google.com/maps?q=37.4488945347,126.6539096832&ll=37.4488945347,126.6539096832",37.4488945347,126.6539096832
2019-09-05 04:02:02,중문색달해변 (Jungmun Saekdal Beach),"https://maps.google.com/maps?q=33.2447585832,126.4134066869&ll=33.2447585832,126.4134066869",33.2447585832,126.4134066869
2019-09-05 04:05:00,성산일출봉 城山日出峰  Seongsan Ilchulbong,"https://maps.google.com/maps?q=33.462093995,126.936156027&ll=33.462093995,126.936156027",33.462093995,126.936156027
2019-09-05 04:06:05,메리엔다마카롱,"https://maps.google.com/maps?q=37.503169906,126.7215298412&ll=37.503169906,126.7215298412",37.503169906,126.7215298412
2019-09-05 04:14:00,Jeju-do,"https://maps.google.com/maps?q=33.4597558033,126.33557443&ll=33.4597558033,126.33557443",33.4597558033,126.33557443
2019-09-05 04:15:00,대막,"https://maps.google.com/maps?q=37.6480585,127.0153093&ll=37.6480585,127.0153093",37.6480585,127.0153093
2019-09-05 04:18:03,Gate 8 - GMP Domestic / 8번 탑승구 - 김포공항 국내선,"https://maps.google.com/maps?q=37.5578813974,126.8034473952&ll=37.5578813974,126.8034473952",37.5578813974,126.8034473952
2019-09-05 04:19:04,영종운서역 솔리움 센텀스카이 오피스텔,"https://maps.google.com/maps?q=37.4536,126.732&ll=37.4536,126.732",37.4536,126.732
2019-09-05 04:26:05,이가농원,"https://maps.google.com/maps?q=33.2617112653,126.3564608348&ll=33.2617112653,126.3564608348",33.2617112653,126.3564608348
2019-09-05 04:27:00,스테이 비갠오후,"https://maps.google.com/maps?q=33.2552428607,126.5255542452&ll=33.2552428607,126.5255542452",33.2552428607,126.5255542452
2019-09-05 04:39:02,송정해수욕장,"https://maps.google.com/maps?q=35.1794760755,129.2009536296&ll=35.1794760755,129.2009536296",35.1794760755,129.2009536296
2019-09-05 04:40:03,Incheon International Airport Terminal 2,"https://maps.google.com/maps?q=37.4669784,126.4357369905&ll=37.4669784,126.4357369905",37.4669784,126.4357369905
2019-09-05 04:41:05,연신내 로데오거리,"https://maps.google.com/maps?q=37.6173670402,126.919650798&ll=37.6173670402,126.919650798",37.6173670402,126.919650798
2019-09-05 04:42:01,할리스 북가좌점,"https://maps.google.com/maps?q=37.5809043364,126.9121834176&ll=37.5809043364,126.9121834176",37.5809043364,126.9121834176
2019-09-05 04:43:01,Yongin,"https://maps.google.com/maps?q=37.2361,127.201&ll=37.2361,127.201",37.2361,127.201
2019-09-05 04:43:05,Goyang,"https://maps.google.com/maps?q=37.65,126.8&ll=37.65,126.8",37.65,126.8
2019-09-05 04:48:05,카페 2085,"https://maps.google.com/maps?q=33.486627558,126.70033466&ll=33.486627558,126.70033466",33.486627558,126.70033466
2019-09-05 04:51:03,Manmade Wooyoungmi,"https://maps.google.com/maps?q=37.524637724,127.0365975304&ll=37.524637724,127.0365975304",37.524637724,127.0365975304
2019-09-05 04:55:00,"굿띵스, good things","https://maps.google.com/maps?q=35.8535396225,128.652176857&ll=35.8535396225,128.652176857",35.8535396225,128.652176857
2019-09-05 04:56:03,갯마을,"https://maps.google.com/maps?q=37.52733969,127.03347498&ll=37.52733969,127.03347498",37.52733969,127.03347498
2019-09-05 04:59:04,소하동 어딘가,"https://maps.google.com/maps?q=37.4478144,126.88377181&ll=37.4478144,126.88377181",37.4478144,126.88377181
2019-09-05 05:04:03,Hwaseong,"https://maps.google.com/maps?q=37.1995,126.831&ll=37.1995,126.831",37.1995,126.831
2019-09-05 05:09:00,곰막,"https://maps.google.com/maps?q=33.5567573118,126.7206004666&ll=33.5567573118,126.7206004666",33.5567573118,126.7206004666
2019-09-05 05:21:01,서울강남구,"https://maps.google.com/maps?q=37.5004864717,127.027836023&ll=37.5004864717,127.027836023",37.5004864717,127.027836023
2019-09-05 05:22:05,청양,"https://maps.google.com/maps?q=36.4523510268,126.8033292328&ll=36.4523510268,126.8033292328",36.4523510268,126.8033292328
2019-09-05 05:24:05,운정호수공원,"https://maps.google.com/maps?q=37.7246646596,126.7395603084&ll=37.7246646596,126.7395603084",37.7246646596,126.7395603084
2019-09-05 05:24:05,부산 광안리 해변,"https://maps.google.com/maps?q=35.1556575374,129.1231650142&ll=35.1556575374,129.1231650142",35.1556575374,129.1231650142
2019-09-05 05:26:00,관악구,"https://maps.google.com/maps?q=37.4870225184,126.9260152998&ll=37.4870225184,126.9260152998",37.4870225184,126.9260152998
2019-09-05 05:27:01,메가박스 창동,"https://maps.google.com/maps?q=37.6546271459,127.0384806451&ll=37.6546271459,127.0384806451",37.6546271459,127.0384806451
2019-09-05 05:28:02,오캄,"https://maps.google.com/maps?q=33.47149911,126.509488995&ll=33.47149911,126.509488995",33.47149911,126.509488995
2019-09-05 05:31:01,"Seoul, South Korea","https://maps.google.com/maps?q=37.5689,126.977&ll=37.5689,126.977",37.5689,126.977
2019-09-05 05:31:03,회~~~사,"https://maps.google.com/maps?q=37.5004756953,127.0415029542&ll=37.5004756953,127.0415029542",37.5004756953,127.0415029542
2019-09-05 05:32:03,쿠잉제주,"https://maps.google.com/maps?q=33.3892484802,126.2455832372&ll=33.3892484802,126.2455832372",33.3892484802,126.2455832372
2019-09-05 05:35:00,수원시 영통구 망포동,"https://maps.google.com/maps?q=37.2455279,127.0574863&ll=37.2455279,127.0574863",37.2455279,127.0574863
2019-09-05 05:35:02,아산시 우리집,"https://maps.google.com/maps?q=36.7842646642,127.0151991305&ll=36.7842646642,127.0151991305",36.7842646642,127.0151991305
2019-09-05 05:35:05,"Seoul, Korea","https://maps.google.com/maps?q=37.51502,127.01648&ll=37.51502,127.01648",37.51502,127.01648
2019-09-05 05:35:05,Icheon,"https://maps.google.com/maps?q=37.272,127.435&ll=37.272,127.435",37.272,127.435
2019-09-05 05:36:01,약수역 스타벅스,"https://maps.google.com/maps?q=37.5553739005,127.0107879862&ll=37.5553739005,127.0107879862",37.5553739005,127.0107879862
2019-09-05 05:39:02,제주 협재 해수욕장,"https://maps.google.com/maps?q=33.3945733169,126.2409784317&ll=33.3945733169,126.2409784317",33.3945733169,126.2409784317
2019-09-05 05:42:01,고우다 뷰티작업실,"https://maps.google.com/maps?q=35.2292060449,129.0889424086&ll=35.2292060449,129.0889424086",35.2292060449,129.0889424086
2019-09-05 05:45:03,서귀포 매일올레시장,"https://maps.google.com/maps?q=33.2493168919,126.5636880831&ll=33.2493168919,126.5636880831",33.2493168919,126.5636880831
2019-09-05 05:47:02,제주바르,"https://maps.google.com/maps?q=33.4278604,126.2635189&ll=33.4278604,126.2635189",33.4278604,126.2635189
2019-09-05 05:51:03,Azurer - 아쥬레 메인 페이지,"https://maps.google.com/maps?q=37.522686124,127.0395169277&ll=37.522686124,127.0395169277",37.522686124,127.0395169277
2019-09-05 05:54:05,태안펜션그람피하우스,"https://maps.google.com/maps?q=36.6563544279,126.3080245069&ll=36.6563544279,126.3080245069",36.6563544279,126.3080245069
2019-09-05 05:56:00,피터테너리,"https://maps.google.com/maps?q=37.5981532,126.9618731&ll=37.5981532,126.9618731",37.5981532,126.9618731
2019-09-05 05:56:03,한동리 화수목,"https://maps.google.com/maps?q=33.5406166816,126.8307450414&ll=33.5406166816,126.8307450414",33.5406166816,126.8307450414
2019-09-05 05:58:05,약수동,"https://maps.google.com/maps?q=37.5548007452,127.0120036326&ll=37.5548007452,127.0120036326",37.5548007452,127.0120036326
2019-09-05 06:02:02,"Seoul, South Korea","https://maps.google.com/maps?q=37.5689,126.977&ll=37.5689,126.977",37.5689,126.977
2019-09-05 06:03:04,국립춘천박물관(Chuncheon National Museum),"https://maps.google.com/maps?q=37.8639030094,127.7537627852&ll=37.8639030094,127.7537627852",37.8639030094,127.7537627852
2019-09-05 06:04:02,노원구 공릉동,"https://maps.google.com/maps?q=37.6241243,127.0771293071&ll=37.6241243,127.0771293071",37.6241243,127.0771293071
2019-09-05 06:05:04,아풒ㅅㄹ뇨ㅗㅠㅍㅋ,"https://maps.google.com/maps?q=-3.130019,-60.02206&ll=-3.130019,-60.02206",-3.130019,-60.02206
2019-09-05 06:06:02,Uijeongbu,"https://maps.google.com/maps?q=37.7381,127.034&ll=37.7381,127.034",37.7381,127.034
2019-09-05 06:09:00,Banh Mi Lee 해방촌 베트남 샌드위치 반미리,"https://maps.google.com/maps?q=37.5431937075,126.9877642425&ll=37.5431937075,126.9877642425",37.5431937075,126.9877642425
2019-09-05 06:09:01,Pohang,"https://maps.google.com/maps?q=36.04117,129.37389&ll=36.04117,129.37389",36.04117,129.37389
2019-09-05 06:09:05,플로티,"https://maps.google.com/maps?q=35.81800226,127.10611707&ll=35.81800226,127.10611707",35.81800226,127.10611707
2019-09-05 06:10:00,익산 오소베이커리,"https://maps.google.com/maps?q=35.9620232,126.9918253&ll=35.9620232,126.9918253",35.9620232,126.9918253
2019-09-05 06:12:00,"Seoul, South Korea","https://maps.google.com/maps?q=37.5689,126.977&ll=37.5689,126.977",37.5689,126.977
2019-09-05 06:13:05,"Seoul, Korea","https://maps.google.com/maps?q=37.51502,127.01648&ll=37.51502,127.01648",37.51502,127.01648
2019-09-05 06:17:00,그랜드 하얏트 서울,"https://maps.google.com/maps?q=37.50237535,127.0221058&ll=37.50237535,127.0221058",37.50237535,127.0221058
2019-09-05 06:17:01,FOURB 포비,"https://maps.google.com/maps?q=37.569496465,126.9870137999&ll=37.569496465,126.9870137999",37.569496465,126.9870137999
2019-09-05 06:18:04,"Seoul, Korea","https://maps.google.com/maps?q=37.51502,127.01648&ll=37.51502,127.01648",37.51502,127.01648
2019-09-05 06:18:05,Hwaseong,"https://maps.google.com/maps?q=37.1995,126.831&ll=37.1995,126.831",37.1995,126.831
2019-09-05 06:20:02,Suwon,"https://maps.google.com/maps?q=37.2824,127.0183&ll=37.2824,127.0183",37.2824,127.0183
2019-09-05 06:23:04,Mokpo,"https://maps.google.com/maps?q=34.7936,126.389&ll=34.7936,126.389",34.7936,126.389
2019-09-05 06:23:04,"Seoul, Korea","https://maps.google.com/maps?q=37.51502,127.01648&ll=37.51502,127.01648",37.51502,127.01648
2019-09-05 06:25:04,래미안 수지 이스트파크,"https://maps.google.com/maps?q=37.3292263281,127.0996865933&ll=37.3292263281,127.0996865933",37.3292263281,127.0996865933
2019-09-05 06:27:00,고운식당,"https://maps.google.com/maps?q=35.869405548,128.6048055698&ll=35.869405548,128.6048055698",35.869405548,128.6048055698
2019-09-05 06:30:00,"Seoul, South Korea","https://maps.google.com/maps?q=37.5689,126.977&ll=37.5689,126.977",37.5689,126.977
2019-09-05 06:31:05,Hyehwa-dong,"https://maps.google.com/maps?q=37.587838132,127.0018819699&ll=37.587838132,127.0018819699",37.587838132,127.0018819699
2019-09-05 06:32:01,점프노리 키즈카페,"https://maps.google.com/maps?q=37.5194052257,126.8892778031&ll=37.5194052257,126.8892778031",37.5194052257,126.8892778031
2019-09-05 06:33:05,충청남도 보령 대천해수욕장,"https://maps.google.com/maps?q=36.3057199575,126.5164820264&ll=36.3057199575,126.5164820264",36.3057199575,126.5164820264
2019-09-05 06:35:02,파인애플상가,"https://maps.google.com/maps?q=37.5121024,127.0848712&ll=37.5121024,127.0848712",37.5121024,127.0848712
2019-09-05 06:37:05,"Gyeongju, Korea","https://maps.google.com/maps?q=35.8428,129.212&ll=35.8428,129.212",35.8428,129.212
2019-09-05 06:40:02,연신내역,"https://maps.google.com/maps?q=37.6194154829,126.9208845276&ll=37.6194154829,126.9208845276",37.6194154829,126.9208845276
2019-09-05 06:43:01,Gwangju,"https://maps.google.com/maps?q=35.159494,126.851287&ll=35.159494,126.851287",35.159494,126.851287
2019-09-05 06:44:01,초밥군커피씨,"https://maps.google.com/maps?q=33.512671404,126.512844141&ll=33.512671404,126.512844141",33.512671404,126.512844141
2019-09-05 06:45:05,동두천 탑동계곡,"https://maps.google.com/maps?q=37.8917930275,127.1222266417&ll=37.8917930275,127.1222266417",37.8917930275,127.1222266417
2019-09-05 06:47:03,済州島 - チェジュ島,"https://maps.google.com/maps?q=33.4417251683,126.881738193&ll=33.4417251683,126.881738193",33.4417251683,126.881738193
2019-09-05 06:48:03,뻘다방,"https://maps.google.com/maps?q=37.2340163789,126.5312480728&ll=37.2340163789,126.5312480728",37.2340163789,126.5312480728
2019-09-05 06:48:04,인천 서구 불로동,"https://maps.google.com/maps?q=37.6136907197,126.6901361358&ll=37.6136907197,126.6901361358",37.6136907197,126.6901361358
2019-09-05 06:52:03,새절역,"https://maps.google.com/maps?q=37.5902220688,126.9132367722&ll=37.5902220688,126.9132367722",37.5902220688,126.9132367722
2019-09-05 06:53:05,동문시장,"https://maps.google.com/maps?q=33.5129659683,126.5268035314&ll=33.5129659683,126.5268035314",33.5129659683,126.5268035314
2019-09-05 06:57:01,Suwon,"https://maps.google.com/maps?q=37.2824,127.0183&ll=37.2824,127.0183",37.2824,127.0183
2019-09-05 06:58:02,퇴근길 책한잔,"https://maps.google.com/maps?q=37.5555540632,126.9466293473&ll=37.5555540632,126.9466293473",37.5555540632,126.9466293473
2019-09-05 07:00:03,Stem Coffee,"https://maps.google.com/maps?q=37.5130651468,127.058823233&ll=37.5130651468,127.058823233",37.5130651468,127.058823233
2019-09-05 07:01:01,금능해수욕장,"https://maps.google.com/maps?q=33.3898718391,126.2349769926&ll=33.3898718391,126.2349769926",33.3898718391,126.2349769926
2019-09-05 07:01:02,청계천,"https://maps.google.com/maps?q=37.5691695388,126.9790639764&ll=37.5691695388,126.9790639764",37.5691695388,126.9790639764
2019-09-05 07:04:02,시인의집,"https://maps.google.com/maps?q=33.53587582,126.6345325773&ll=33.53587582,126.6345325773",33.53587582,126.6345325773
2019-09-05 07:05:01,광교,"https://maps.google.com/maps?q=37.2862233228,127.0560286092&ll=37.2862233228,127.0560286092",37.2862233228,127.0560286092
2019-09-05 07:05:04,목포 대반동,"https://maps.google.com/maps?q=34.786265828,126.367986016&ll=34.786265828,126.367986016",34.786265828,126.367986016
2019-09-05 07:06:01,영어교육도시,"https://maps.google.com/maps?q=33.2887603007,126.282195565&ll=33.2887603007,126.282195565",33.2887603007,126.282195565
2019-09-05 07:10:00,충남 내포신도시,"https://maps.google.com/maps?q=36.6600669021,126.6817078395&ll=36.6600669021,126.6817078395",36.6600669021,126.6817078395
2019-09-05 07:14:00,The Shore Hotel Jeju - 더쇼어호텔제주,"https://maps.google.com/maps?q=33.2444611007,126.4057144662&ll=33.2444611007,126.4057144662",33.2444611007,126.4057144662
2019-09-05 07:14:01,"Jeju Island, Seongsan","https://maps.google.com/maps?q=33.4770514167,126.8966411333&ll=33.4770514167,126.8966411333",33.4770514167,126.8966411333
2019-09-05 07:15:01,연남동 어딘가,"https://maps.google.com/maps?q=37.5632019,126.92301928&ll=37.5632019,126.92301928",37.5632019,126.92301928
2019-09-05 07:17:02,Jeju-do,"https://maps.google.com/maps?q=33.4597558033,126.33557443&ll=33.4597558033,126.33557443",33.4597558033,126.33557443
2019-09-05 07:18:04,Jeju,"https://maps.google.com/maps?q=33.5097,126.522&ll=33.5097,126.522",33.5097,126.522
2019-09-05 07:21:05,Jeju-do,"https://maps.google.com/maps?q=33.4597558033,126.33557443&ll=33.4597558033,126.33557443",33.4597558033,126.33557443
2019-09-05 07:25:04,"Incheon, Korea","https://maps.google.com/maps?q=37.4702,126.6343&ll=37.4702,126.6343",37.4702,126.6343
2019-09-05 07:26:03,강남,"https://maps.google.com/maps?q=37.5689,126.977&ll=37.5689,126.977",37.5689,126.977
2019-09-05 07:28:00,한국 도로공사 수목원,"https://maps.google.com/maps?q=35.8697494073,127.0539236908&ll=35.8697494073,127.0539236908",35.8697494073,127.0539236908
2019-09-05 07:32:00,"Jeju Island, Seongsan","https://maps.google.com/maps?q=33.4770514167,126.8966411333&ll=33.4770514167,126.8966411333",33.4770514167,126.8966411333
2019-09-05 07:33:03,Suwon,"https://maps.google.com/maps?q=37.2824,127.0183&ll=37.2824,127.0183",37.2824,127.0183
2019-09-05 07:36:02,Jeju,"https://maps.google.com/maps?q=33.5097,126.522&ll=33.5097,126.522",33.5097,126.522
2019-09-05 07:37:00,제주 협재 해수욕장,"https://maps.google.com/maps?q=33.3945733169,126.2409784317&ll=33.3945733169,126.2409784317",33.3945733169,126.2409784317
2019-09-05 07:37:02,South Korea,"https://maps.google.com/maps?q=36.0,128.0&ll=36.0,128.0",36.0,128.0
2019-09-05 07:37:04,Mokpo,"https://maps.google.com/maps?q=34.7936,126.389&ll=34.7936,126.389",34.7936,126.389
2019-09-05 07:45:02,Jeju-do,"https://maps.google.com/maps?q=33.4597558033,126.33557443&ll=33.4597558033,126.33557443",33.4597558033,126.33557443
2019-09-05 07:47:03,Changwon,"https://maps.google.com/maps?q=35.2193,128.5733&ll=35.2193,128.5733",35.2193,128.5733
2019-09-05 07:49:01,South Korea,"https://maps.google.com/maps?q=36.0,128.0&ll=36.0,128.0",36.0,128.0
2019-09-05 07:51:04,Cheongju,"https://maps.google.com/maps?q=36.6372,127.49&ll=36.6372,127.49",36.6372,127.49
2019-09-05 07:56:04,더티트렁크,"https://maps.google.com/maps?q=37.7611,126.775&ll=37.7611,126.775",37.7611,126.775
2019-09-05 08:00:05,Shineville Luxury Resort,"https://maps.google.com/maps?q=33.3054917496,126.7918094659&ll=33.3054917496,126.7918094659",33.3054917496,126.7918094659
2019-09-05 08:01:03,서울 건대입구,"https://maps.google.com/maps?q=37.5448047445,127.0684444464&ll=37.5448047445,127.0684444464",37.5448047445,127.0684444464
2019-09-05 08:03:02,멜멜,"https://maps.google.com/maps?q=37.04961715,127.15497357&ll=37.04961715,127.15497357",37.04961715,127.15497357
2019-09-05 08:04:03,Gangnam Seoul Korea,"https://maps.google.com/maps?q=37.5003008727,127.0265772745&ll=37.5003008727,127.0265772745",37.5003008727,127.0265772745
2019-09-05 08:04:03,Sokcho,"https://maps.google.com/maps?q=38.2083,128.591&ll=38.2083,128.591",38.2083,128.591
2019-09-05 08:08:05,대구 혁신도시,"https://maps.google.com/maps?q=35.8820089241,128.7352331632&ll=35.8820089241,128.7352331632",35.8820089241,128.7352331632
2019-09-05 08:11:00,Jeju,"https://maps.google.com/maps?q=33.5097,126.522&ll=33.5097,126.522",33.5097,126.522
2019-09-05 08:12:03,방예리,"https://maps.google.com/maps?q=37.6617410659,127.0408022404&ll=37.6617410659,127.0408022404",37.6617410659,127.0408022404
2019-09-05 08:13:02,탱자싸롱 & Salon de Tangza in Jeju,"https://maps.google.com/maps?q=33.5192414819,126.8627068877&ll=33.5192414819,126.8627068877",33.5192414819,126.8627068877
2019-09-05 08:14:03,카페괜찮은하루,"https://maps.google.com/maps?q=35.300390385,126.7818165417&ll=35.300390385,126.7818165417",35.300390385,126.7818165417
2019-09-05 08:16:02,판교백현동,"https://maps.google.com/maps?q=37.3905853017,127.1188839039&ll=37.3905853017,127.1188839039",37.3905853017,127.1188839039
2019-09-05 08:16:04,예미정 - 안동종가집상차림,"https://maps.google.com/maps?q=36.5412257541,128.7504959106&ll=36.5412257541,128.7504959106",36.5412257541,128.7504959106
2019-09-05 08:21:05,송당리 풍림다방,"https://maps.google.com/maps?q=33.4716745878,126.7835256356&ll=33.4716745878,126.7835256356",33.4716745878,126.7835256356
2019-09-05 08:22:01,제주도,"https://maps.google.com/maps?q=33.5097,126.522&ll=33.5097,126.522",33.5097,126.522
2019-09-05 08:22:01,네스트호텔,"https://maps.google.com/maps?q=37.4246560497,126.4278745651&ll=37.4246560497,126.4278745651",37.4246560497,126.4278745651
2019-09-05 08:22:01,김포공항 (Gimpo Airport),"https://maps.google.com/maps?q=37.5586329176,126.8031246033&ll=37.5586329176,126.8031246033",37.5586329176,126.8031246033
2019-09-05 08:23:04,International Business District Station,"https://maps.google.com/maps?q=37.39995,126.63021&ll=37.39995,126.63021",37.39995,126.63021
2019-09-05 08:25:03,청주시 사창동,"https://maps.google.com/maps?q=36.6361978145,127.4600231692&ll=36.6361978145,127.4600231692",36.6361978145,127.4600231692
2019-09-05 08:26:01,삼각지역,"https://maps.google.com/maps?q=37.5355111111,126.9739305556&ll=37.5355111111,126.9739305556",37.5355111111,126.9739305556
2019-09-05 08:28:02,제주여행,"https://maps.google.com/maps?q=33.5093930417,126.5298843384&ll=33.5093930417,126.5298843384",33.5093930417,126.5298843384
2019-09-05 08:30:03,쿠잉제주,"https://maps.google.com/maps?q=33.3892484802,126.2455832372&ll=33.3892484802,126.2455832372",33.3892484802,126.2455832372
2019-09-05 08:32:00,리연비,"https://maps.google.com/maps?q=36.6365781691,127.4602329984&ll=36.6365781691,127.4602329984",36.6365781691,127.4602329984
2019-09-05 08:34:01,서울시 강북구 수유동,"https://maps.google.com/maps?q=37.6457934712,127.0158250455&ll=37.6457934712,127.0158250455",37.6457934712,127.0158250455
2019-09-05 08:40:03,춘천우리집에서,"https://maps.google.com/maps?q=37.8801319246,127.7363016377&ll=37.8801319246,127.7363016377",37.8801319246,127.7363016377
2019-09-05 08:41:04,Iksan,"https://maps.google.com/maps?q=35.9439,126.954&ll=35.9439,126.954",35.9439,126.954
2019-09-05 08:43:00,"가로수길 Sinsa, Seoul","https://maps.google.com/maps?q=37.5163792782,127.0200684294&ll=37.5163792782,127.0200684294",37.5163792782,127.0200684294
2019-09-05 08:43:02,광교,"https://maps.google.com/maps?q=None,None&ll=None,None",None,None
2019-09-05 08:44:05,시즌커피앤베이크,"https://maps.google.com/maps?q=37.5263582325,126.8891255403&ll=37.5263582325,126.8891255403",37.5263582325,126.8891255403
2019-09-05 08:45:01,수로왕릉공원,"https://maps.google.com/maps?q=35.2345150884,128.8785805794&ll=35.2345150884,128.8785805794",35.2345150884,128.8785805794
2019-09-05 08:47:02,효자동 신시가지,"https://maps.google.com/maps?q=35.8157832,127.1197174&ll=35.8157832,127.1197174",35.8157832,127.1197174
2019-09-05 08:48:03,진주시 호탄동,"https://maps.google.com/maps?q=35.1636096646,128.114304367&ll=35.1636096646,128.114304367",35.1636096646,128.114304367
2019-09-05 08:50:01,Jungmun Beach,"https://maps.google.com/maps?q=33.2444495605,126.4145853856&ll=33.2444495605,126.4145853856",33.2444495605,126.4145853856
2019-09-05 08:51:04,송암스포츠타운,"https://maps.google.com/maps?q=37.8557182108,127.690366671&ll=37.8557182108,127.690366671",37.8557182108,127.690366671
2019-09-05 08:54:05,역삼동 어디쯤,"https://maps.google.com/maps?q=37.4962456478,127.0441789739&ll=37.4962456478,127.0441789739",37.4962456478,127.0441789739
2019-09-05 08:55:05,Gimpo,"https://maps.google.com/maps?q=37.6152,126.716&ll=37.6152,126.716",37.6152,126.716
2019-09-05 08:58:03,Suwon,"https://maps.google.com/maps?q=37.2824,127.0183&ll=37.2824,127.0183",37.2824,127.0183
2019-09-05 08:59:04,아주대앞어딘가...,"https://maps.google.com/maps?q=37.2752191982,127.043914922&ll=37.2752191982,127.043914922",37.2752191982,127.043914922
2019-09-05 09:03:00,아쿠아 플라넷 제주,"https://maps.google.com/maps?q=33.4334037582,126.9271900504&ll=33.4334037582,126.9271900504",33.4334037582,126.9271900504
2019-09-05 09:06:03,"Seoul, Korea","https://maps.google.com/maps?q=37.51502,127.01648&ll=37.51502,127.01648",37.51502,127.01648
2019-09-05 09:06:05,강릉교동택지,"https://maps.google.com/maps?q=37.7645658881,128.879641403&ll=37.7645658881,128.879641403",37.7645658881,128.879641403
2019-09-05 09:09:03,Hanyang University,"https://maps.google.com/maps?q=37.55638889,127.04444444&ll=37.55638889,127.04444444",37.55638889,127.04444444
2019-09-05 09:15:00,Woljeongri Beach,"https://maps.google.com/maps?q=33.5560344858,126.7958043786&ll=33.5560344858,126.7958043786",33.5560344858,126.7958043786
2019-09-05 09:15:04,상일동어딘가,"https://maps.google.com/maps?q=37.553017,127.170116&ll=37.553017,127.170116",37.553017,127.170116
2019-09-05 09:18:00,Gimpo International Airport - 金浦国际机场 - 김포공항,"https://maps.google.com/maps?q=37.5663445497,126.8013426898&ll=37.5663445497,126.8013426898",37.5663445497,126.8013426898
2019-09-05 09:19:01,Daegu,"https://maps.google.com/maps?q=35.8703,128.591&ll=35.8703,128.591",35.8703,128.591
2019-09-05 09:20:05,Ansan,"https://maps.google.com/maps?q=37.3236,126.822&ll=37.3236,126.822",37.3236,126.822
2019-09-05 09:22:03,그린홀리데이,"https://maps.google.com/maps?q=37.609552941,126.480390193&ll=37.609552941,126.480390193",37.609552941,126.480390193
2019-09-05 09:26:02,"Seoul, South Korea","https://maps.google.com/maps?q=37.5689,126.977&ll=37.5689,126.977",37.5689,126.977
2019-09-05 09:28:04,Eumseong,"https://maps.google.com/maps?q=36.9276,127.688&ll=36.9276,127.688",36.9276,127.688
2019-09-05 09:28:05,율량동 어딘가,"https://maps.google.com/maps?q=36.6673603,127.4924332&ll=36.6673603,127.4924332",36.6673603,127.4924332
2019-09-05 09:29:01,Haevichi Hotel & Resort (해비치 호텔 & 리조트),"https://maps.google.com/maps?q=33.3225304869,126.8446670869&ll=33.3225304869,126.8446670869",33.3225304869,126.8446670869
2019-09-05 09:30:01,Cafe yuzu,"https://maps.google.com/maps?q=33.4052410844,126.2573155761&ll=33.4052410844,126.2573155761",33.4052410844,126.2573155761
2019-09-05 09:30:05,신시가지 어딘가,"https://maps.google.com/maps?q=35.8173861937,127.1091348269&ll=35.8173861937,127.1091348269",35.8173861937,127.1091348269
2019-09-05 09:32:04,바디컨트롤,"https://maps.google.com/maps?q=37.499913,126.927989&ll=37.499913,126.927989",37.499913,126.927989
2019-09-05 09:33:02,cafe_muchaesaek,"https://maps.google.com/maps?q=33.2543898092,126.430106163&ll=33.2543898092,126.430106163",33.2543898092,126.430106163
2019-09-05 09:33:02,하늘고래,"https://maps.google.com/maps?q=33.4063157781,126.2653260768&ll=33.4063157781,126.2653260768",33.4063157781,126.2653260768
2019-09-05 09:33:03,"Cheonan, Korea","https://maps.google.com/maps?q=36.8064,127.152&ll=36.8064,127.152",36.8064,127.152
2019-09-05 09:37:01,寶龍艾美酒店,"https://maps.google.com/maps?q=31.1597012609,121.351392376&ll=31.1597012609,121.351392376",31.1597012609,121.351392376
2019-09-05 09:38:03,웨딩헤너스,"https://maps.google.com/maps?q=37.5896356043,127.0598937068&ll=37.5896356043,127.0598937068",37.5896356043,127.0598937068
2019-09-05 09:40:00,인천국제공항,"https://maps.google.com/maps?q=37.4625,126.4391666667&ll=37.4625,126.4391666667",37.4625,126.4391666667
2019-09-05 09:40:01,Gyeongsan,"https://maps.google.com/maps?q=35.8233,128.738&ll=35.8233,128.738",35.8233,128.738
2019-09-05 09:46:05,가양대교,"https://maps.google.com/maps?q=37.571,126.8623&ll=37.571,126.8623",37.571,126.8623
2019-09-05 09:47:00,미쁜제과,"https://maps.google.com/maps?q=33.2691689873,126.1799942615&ll=33.2691689873,126.1799942615",33.2691689873,126.1799942615
2019-09-05 09:47:01,여의도 어딘가,"https://maps.google.com/maps?q=37.5200900179,126.9298016098&ll=37.5200900179,126.9298016098",37.5200900179,126.9298016098
2019-09-05 09:47:02,청담 사거리,"https://maps.google.com/maps?q=37.46296983,127.03093945&ll=37.46296983,127.03093945",37.46296983,127.03093945
2019-09-05 09:48:01,"Daegu, South Korea","https://maps.google.com/maps?q=35.8223,128.6115&ll=35.8223,128.6115",35.8223,128.6115
2019-09-05 09:49:01,제주 협재 해수욕장,"https://maps.google.com/maps?q=33.3945733169,126.2409784317&ll=33.3945733169,126.2409784317",33.3945733169,126.2409784317
2019-09-05 09:49:05,우리집 내방 침대위,"https://maps.google.com/maps?q=37.624669599,126.839068172&ll=37.624669599,126.839068172",37.624669599,126.839068172
2019-09-05 09:52:02,Samseong-dong,"https://maps.google.com/maps?q=37.51398611,127.05651944&ll=37.51398611,127.05651944",37.51398611,127.05651944
2019-09-05 09:54:01,Jeju Island,"https://maps.google.com/maps?q=33.3656,126.5281&ll=33.3656,126.5281",33.3656,126.5281
2019-09-05 09:54:04,현대카드 뮤직 라이브러리,"https://maps.google.com/maps?q=37.5366372,127.000784&ll=37.5366372,127.000784",37.5366372,127.000784
2019-09-05 09:55:04,"Seoul, South Korea","https://maps.google.com/maps?q=37.5689,126.977&ll=37.5689,126.977",37.5689,126.977
2019-09-05 09:56:00,사천아이나비,"https://maps.google.com/maps?q=35.0804290582,128.0819760734&ll=35.0804290582,128.0819760734",35.0804290582,128.0819760734
2019-09-05 09:56:02,"Osan, Kyonggi-Do, Korea","https://maps.google.com/maps?q=37.14628,127.07803&ll=37.14628,127.07803",37.14628,127.07803
2019-09-05 09:56:05,강숙수부뚜막,"https://maps.google.com/maps?q=33.5207204,126.5654235&ll=33.5207204,126.5654235",33.5207204,126.5654235
2019-09-05 09:57:05,경기도 광주,"https://maps.google.com/maps?q=37.4350278143,127.2334582&ll=37.4350278143,127.2334582",37.4350278143,127.2334582
2019-09-05 09:58:02,Jeonju,"https://maps.google.com/maps?q=35.8219,127.149&ll=35.8219,127.149",35.8219,127.149
2019-09-05 09:59:03,경기도성남,"https://maps.google.com/maps?q=37.4328858169,127.1738705089&ll=37.4328858169,127.1738705089",37.4328858169,127.1738705089
2019-09-05 10:01:04,대소 면 South Korea,"https://maps.google.com/maps?q=36.97132962,127.48451614&ll=36.97132962,127.48451614",36.97132962,127.48451614
2019-09-05 10:02:01,Seongnam,"https://maps.google.com/maps?q=37.41105,127.118&ll=37.41105,127.118",37.41105,127.118
2019-09-05 10:03:01,Gimpo International Airport - 金浦国际机场 - 김포공항,"https://maps.google.com/maps?q=37.5663445497,126.8013426898&ll=37.5663445497,126.8013426898",37.5663445497,126.8013426898
2019-09-05 10:04:02,더심플카페,"https://maps.google.com/maps?q=33.2512471117,126.5230750984&ll=33.2512471117,126.5230750984",33.2512471117,126.5230750984
2019-09-05 10:04:02,목동-Mokdong,"https://maps.google.com/maps?q=37.5321082333,126.8777461667&ll=37.5321082333,126.8777461667",37.5321082333,126.8777461667
2019-09-05 10:04:04,"Seoul, South Korea","https://maps.google.com/maps?q=37.5689,126.977&ll=37.5689,126.977",37.5689,126.977
2019-09-05 10:06:01,"Osan, Kyonggi-Do, Korea","https://maps.google.com/maps?q=37.14628,127.07803&ll=37.14628,127.07803",37.14628,127.07803
2019-09-05 10:08:00,별빛정원 우주,"https://maps.google.com/maps?q=37.2423551333,127.3914527893&ll=37.2423551333,127.3914527893",37.2423551333,127.3914527893
2019-09-05 10:08:00,위례신도시,"https://maps.google.com/maps?q=37.4753280967,127.14062302&ll=37.4753280967,127.14062302",37.4753280967,127.14062302
2019-09-05 10:09:00,Seogwipo,"https://maps.google.com/maps?q=33.2541,126.56&ll=33.2541,126.56",33.2541,126.56
2019-09-05 10:09:01,Yongin,"https://maps.google.com/maps?q=37.2361,127.201&ll=37.2361,127.201",37.2361,127.201
2019-09-05 10:11:01,"Seoul, South Korea","https://maps.google.com/maps?q=37.5689,126.977&ll=37.5689,126.977",37.5689,126.977
2019-09-05 10:12:03,"Incheon, South Korea","https://maps.google.com/maps?q=37.4536,126.732&ll=37.4536,126.732",37.4536,126.732
2019-09-05 10:12:03,Hanam,"https://maps.google.com/maps?q=37.54,127.206&ll=37.54,127.206",37.54,127.206
2019-09-05 10:12:03,한남동그집가로수길점,"https://maps.google.com/maps?q=37.524302185,127.023950485&ll=37.524302185,127.023950485",37.524302185,127.023950485
2019-09-05 10:14:00,영종도,"https://maps.google.com/maps?q=37.4833333333,126.5166666667&ll=37.4833333333,126.5166666667",37.4833333333,126.5166666667
2019-09-05 10:14:02,Yongin,"https://maps.google.com/maps?q=37.2361,127.201&ll=37.2361,127.201",37.2361,127.201
2019-09-05 10:14:05,"Seoul, South Korea","https://maps.google.com/maps?q=37.5689,126.977&ll=37.5689,126.977",37.5689,126.977
2019-09-05 10:15:02,경서동,"https://maps.google.com/maps?q=37.5574913558,126.65353876&ll=37.5574913558,126.65353876",37.5574913558,126.65353876
2019-09-05 10:15:05,"Bohol, Cebu, Philippines","https://maps.google.com/maps?q=10.1994,123.535&ll=10.1994,123.535",10.1994,123.535
2019-09-05 10:15:05,호평동,"https://maps.google.com/maps?q=37.6564221243,127.2548982746&ll=37.6564221243,127.2548982746",37.6564221243,127.2548982746
2019-09-05 10:16:01,디아뜨르,"https://maps.google.com/maps?q=37.526568162,127.0348158163&ll=37.526568162,127.0348158163",37.526568162,127.0348158163
2019-09-05 10:17:00,Yangpyeong,"https://maps.google.com/maps?q=37.4912,127.488&ll=37.4912,127.488",37.4912,127.488
2019-09-05 10:19:01,순천만,"https://maps.google.com/maps?q=34.8870594134,127.5084077296&ll=34.8870594134,127.5084077296",34.8870594134,127.5084077296
2019-09-05 10:20:00,Bundang-gu,"https://maps.google.com/maps?q=37.3827805556,127.1189055556&ll=37.3827805556,127.1189055556",37.3827805556,127.1189055556
2019-09-05 10:20:03,Bundang-gu,"https://maps.google.com/maps?q=37.3827805556,127.1189055556&ll=37.3827805556,127.1189055556",37.3827805556,127.1189055556
2019-09-05 10:20:04,Bundang-gu,"https://maps.google.com/maps?q=37.3827805556,127.1189055556&ll=37.3827805556,127.1189055556",37.3827805556,127.1189055556
2019-09-05 10:21:01,압구정로데오 Apgujung Rodeo,"https://maps.google.com/maps?q=37.5279113437,127.0401270146&ll=37.5279113437,127.0401270146",37.5279113437,127.0401270146
2019-09-05 10:21:03,애월항 앞바다,"https://maps.google.com/maps?q=33.47473549,126.33537361&ll=33.47473549,126.33537361",33.47473549,126.33537361
2019-09-05 10:21:04,서울여자대학교 바롬인성교육관,"https://maps.google.com/maps?q=37.6276519486,127.0882548485&ll=37.6276519486,127.0882548485",37.6276519486,127.0882548485
2019-09-05 10:22:05,경기 평택시 동삭동,"https://maps.google.com/maps?q=37.0122835673,127.0997173699&ll=37.0122835673,127.0997173699",37.0122835673,127.0997173699
2019-09-05 10:23:03,"Seoul, South Korea","https://maps.google.com/maps?q=37.5689,126.977&ll=37.5689,126.977",37.5689,126.977
2019-09-05 10:25:01,법환 포구,"https://maps.google.com/maps?q=33.236194334,126.514919047&ll=33.236194334,126.514919047",33.236194334,126.514919047
2019-09-05 10:27:00,"Seoul, Korea","https://maps.google.com/maps?q=37.51502,127.01648&ll=37.51502,127.01648",37.51502,127.01648
2019-09-05 10:27:03,더쥬,"https://maps.google.com/maps?q=37.5221755,127.1336071&ll=37.5221755,127.1336071",37.5221755,127.1336071
2019-09-05 10:27:05,스타필드 하남,"https://maps.google.com/maps?q=37.5451986,127.2249237&ll=37.5451986,127.2249237",37.5451986,127.2249237
2019-09-05 10:30:01,PyeongChang,"https://maps.google.com/maps?q=37.3703,128.393&ll=37.3703,128.393",37.3703,128.393
2019-09-05 10:31:01,파스텔골프클럽,"https://maps.google.com/maps?q=37.5102535224,127.0097383905&ll=37.5102535224,127.0097383905",37.5102535224,127.0097383905
2019-09-05 10:34:00,Hanam,"https://maps.google.com/maps?q=37.54,127.206&ll=37.54,127.206",37.54,127.206
2019-09-05 10:37:04,South Korea,"https://maps.google.com/maps?q=36.0,128.0&ll=36.0,128.0",36.0,128.0
2019-09-05 10:38:00,"Seoul, Korea","https://maps.google.com/maps?q=37.51502,127.01648&ll=37.51502,127.01648",37.51502,127.01648
2019-09-05 10:38:01,기찻길315,"https://maps.google.com/maps?q=34.80964925,126.400613665&ll=34.80964925,126.400613665",34.80964925,126.400613665
2019-09-05 10:38:02,Hanam,"https://maps.google.com/maps?q=37.54,127.206&ll=37.54,127.206",37.54,127.206
2019-09-05 10:45:05,잠실 타워730,"https://maps.google.com/maps?q=37.5157585141,127.0990468248&ll=37.5157585141,127.0990468248",37.5157585141,127.0990468248
2019-09-05 10:51:02,백약이오름,"https://maps.google.com/maps?q=33.4857560908,126.4712171752&ll=33.4857560908,126.4712171752",33.4857560908,126.4712171752
2019-09-05 10:52:04,동탄2신도시,"https://maps.google.com/maps?q=37.1959465335,127.1112994667&ll=37.1959465335,127.1112994667",37.1959465335,127.1112994667
2019-09-05 10:53:00,"Incheon, Korea","https://maps.google.com/maps?q=37.4702,126.6343&ll=37.4702,126.6343",37.4702,126.6343
2019-09-05 10:53:00,Terminal21 Asok Shopping Mall,"https://maps.google.com/maps?q=13.7376869151,100.5603930661&ll=13.7376869151,100.5603930661",13.7376869151,100.5603930661
2019-09-05 10:56:04,꽃다방아늑,"https://maps.google.com/maps?q=36.890288419,126.643762317&ll=36.890288419,126.643762317",36.890288419,126.643762317
2019-09-05 10:57:03,"Seoul, South Korea","https://maps.google.com/maps?q=37.5689,126.977&ll=37.5689,126.977",37.5689,126.977
2019-09-05 10:58:04,Dalmagi Hill 해운대 달맞이,"https://maps.google.com/maps?q=35.1599540866,129.1732791552&ll=35.1599540866,129.1732791552",35.1599540866,129.1732791552
2019-09-05 10:59:02,Bucheon,"https://maps.google.com/maps?q=37.4988888889,126.7830555556&ll=37.4988888889,126.7830555556",37.4988888889,126.7830555556
2019-09-05 10:59:02,깡촌흑돼지,"https://maps.google.com/maps?q=33.5413837807,126.6672589235&ll=33.5413837807,126.6672589235",33.5413837807,126.6672589235
2019-09-05 11:02:04,세종시 도램마을,"https://maps.google.com/maps?q=36.5142496609,127.2588235022&ll=36.5142496609,127.2588235022",36.5142496609,127.2588235022
2019-09-05 11:03:04,달리는 Ktx안,"https://maps.google.com/maps?q=36.40130828,127.41463076&ll=36.40130828,127.41463076",36.40130828,127.41463076
2019-09-05 11:04:01,롯데월드 (lotteworld),"https://maps.google.com/maps?q=None,None&ll=None,None",None,None
2019-09-05 11:05:02,Jeju,"https://maps.google.com/maps?q=33.5097,126.522&ll=33.5097,126.522",33.5097,126.522
2019-09-05 11:06:04,부릿팝,"https://maps.google.com/maps?q=37.401654,127.10684&ll=37.401654,127.10684",37.401654,127.10684
2019-09-05 11:06:05,"우리,집집집!!","https://maps.google.com/maps?q=35.1868120011,129.1296262974&ll=35.1868120011,129.1296262974",35.1868120011,129.1296262974
2019-09-05 11:08:03,오션월드 - Ocean World,"https://maps.google.com/maps?q=37.6486800792,127.685262796&ll=37.6486800792,127.685262796",37.6486800792,127.685262796
2019-09-05 11:12:04,Yeongtong-gu,"https://maps.google.com/maps?q=37.25952,127.046516&ll=37.25952,127.046516",37.25952,127.046516
2019-09-05 11:12:05,제주 구좌읍 세화리,"https://maps.google.com/maps?q=33.5213588465,126.8552900901&ll=33.5213588465,126.8552900901",33.5213588465,126.8552900901
2019-09-05 11:14:02,"Ulsan, Korea","https://maps.google.com/maps?q=35.5372,129.317&ll=35.5372,129.317",35.5372,129.317
2019-09-05 11:20:03,송리단길 SongniDan-gil,"https://maps.google.com/maps?q=37.5104270267,127.1084912532&ll=37.5104270267,127.1084912532",37.5104270267,127.1084912532
2019-09-05 11:23:02,Jeollabuk-do,"https://maps.google.com/maps?q=35.4291041803,126.6998614299&ll=35.4291041803,126.6998614299",35.4291041803,126.6998614299
2019-09-05 11:24:02,올림픽선수촌아파트,"https://maps.google.com/maps?q=37.5177155951,127.1333371546&ll=37.5177155951,127.1333371546",37.5177155951,127.1333371546
2019-09-05 11:24:04,여수엑스포컨벤션센터,"https://maps.google.com/maps?q=34.749249,127.747608&ll=34.749249,127.747608",34.749249,127.747608
2019-09-05 11:26:04,돼식가,"https://maps.google.com/maps?q=35.1249458124,126.868831917&ll=35.1249458124,126.868831917",35.1249458124,126.868831917
2019-09-05 11:32:00,Jeju,"https://maps.google.com/maps?q=33.5097,126.522&ll=33.5097,126.522",33.5097,126.522
2019-09-05 11:32:01,동탄 우리집,"https://maps.google.com/maps?q=37.2033939954,127.0579844325&ll=37.2033939954,127.0579844325",37.2033939954,127.0579844325
2019-09-05 11:33:05,Jeju-do,"https://maps.google.com/maps?q=33.4597558033,126.33557443&ll=33.4597558033,126.33557443",33.4597558033,126.33557443
2019-09-05 11:35:03,Hanam,"https://maps.google.com/maps?q=37.54,127.206&ll=37.54,127.206",37.54,127.206
2019-09-05 11:38:01,Jeju,"https://maps.google.com/maps?q=33.5097,126.522&ll=33.5097,126.522",33.5097,126.522
2019-09-05 11:42:05,인천문학경기장,"https://maps.google.com/maps?q=37.435139,126.690806&ll=37.435139,126.690806",37.435139,126.690806
2019-09-05 11:44:00,제주에내집,"https://maps.google.com/maps?q=33.3045881713,126.1791479952&ll=33.3045881713,126.1791479952",33.3045881713,126.1791479952
2019-09-05 11:46:03,인천대교 - Incheon Bridge,"https://maps.google.com/maps?q=37.469323375,126.5146279335&ll=37.469323375,126.5146279335",37.469323375,126.5146279335
2019-09-05 11:46:03,Jeonju,"https://maps.google.com/maps?q=35.8219,127.149&ll=35.8219,127.149",35.8219,127.149
2019-09-05 11:47:02,"신촌 Sinchon, Seoul, South Korea","https://maps.google.com/maps?q=37.5477693819,126.924123466&ll=37.5477693819,126.924123466",37.5477693819,126.924123466
2019-09-05 11:48:00,Hanam,"https://maps.google.com/maps?q=37.54,127.206&ll=37.54,127.206",37.54,127.206
2019-09-05 11:48:01,Pohang,"https://maps.google.com/maps?q=36.04117,129.37389&ll=36.04117,129.37389",36.04117,129.37389
2019-09-05 11:51:01,쏠티캐빈,"https://maps.google.com/maps?q=None,None&ll=None,None",None,None
2019-09-05 11:54:00,파워존 낙성대점 Strength & Conditioning,"https://maps.google.com/maps?q=37.4784550353,126.9606424046&ll=37.4784550353,126.9606424046",37.4784550353,126.9606424046
2019-09-05 11:55:00,Saipan,"https://maps.google.com/maps?q=15.1833,145.75&ll=15.1833,145.75",15.1833,145.75
2019-09-05 11:55:05,Goyang,"https://maps.google.com/maps?q=37.65,126.8&ll=37.65,126.8",37.65,126.8
2019-09-05 11:57:05,중문색달해변 (Jungmun Saekdal Beach),"https://maps.google.com/maps?q=33.2447585832,126.4134066869&ll=33.2447585832,126.4134066869",33.2447585832,126.4134066869
2019-09-05 12:01:03,Jeju,"https://maps.google.com/maps?q=33.5097,126.522&ll=33.5097,126.522",33.5097,126.522
2019-09-05 12:03:03,Jeju International Airport,"https://maps.google.com/maps?q=33.5065775242,126.4930393928&ll=33.5065775242,126.4930393928",33.5065775242,126.4930393928
2019-09-05 12:06:02,빛의 벙커 Bunker de Lumières,"https://maps.google.com/maps?q=33.4397857861,126.8992593885&ll=33.4397857861,126.8992593885",33.4397857861,126.8992593885
2019-09-05 12:06:04,서초짐보리,"https://maps.google.com/maps?q=37.4991530064,126.9966510683&ll=37.4991530064,126.9966510683",37.4991530064,126.9966510683
2019-09-05 12:07:03,"Enough, 이너프","https://maps.google.com/maps?q=33.4561500387,126.4188623428&ll=33.4561500387,126.4188623428",33.4561500387,126.4188623428
2019-09-05 12:10:00,새별오름 (Saebyul Orum),"https://maps.google.com/maps?q=33.3635249283,126.3590010203&ll=33.3635249283,126.3590010203",33.3635249283,126.3590010203
2019-09-05 12:10:05,여주,"https://maps.google.com/maps?q=37.237833,127.611977&ll=37.237833,127.611977",37.237833,127.611977
2019-09-05 12:21:04,전북 군산시,"https://maps.google.com/maps?q=35.9765692942,126.7315839319&ll=35.9765692942,126.7315839319",35.9765692942,126.7315839319
2019-09-05 12:22:04,남해군,"https://maps.google.com/maps?q=34.8375,127.8922222222&ll=34.8375,127.8922222222",34.8375,127.8922222222
2019-09-05 12:23:02,Venezia,"https://maps.google.com/maps?q=34.7458129658,127.7519657734&ll=34.7458129658,127.7519657734",34.7458129658,127.7519657734
2019-09-05 12:23:05,송파구,"https://maps.google.com/maps?q=37.514304,127.106599&ll=37.514304,127.106599",37.514304,127.106599
2019-09-05 12:23:05,"Gwangju, South Korea","https://maps.google.com/maps?q=35.1547,126.916&ll=35.1547,126.916",35.1547,126.916
2019-09-05 12:24:04,어썸스테이,"https://maps.google.com/maps?q=33.46898533,126.7748824175&ll=33.46898533,126.7748824175",33.46898533,126.7748824175
2019-09-05 12:25:05,Goyang,"https://maps.google.com/maps?q=37.65,126.8&ll=37.65,126.8",37.65,126.8
2019-09-05 12:25:05,Yeosu,"https://maps.google.com/maps?q=34.7604,127.662&ll=34.7604,127.662",34.7604,127.662
2019-09-05 12:26:03,천지연 폭포,"https://maps.google.com/maps?q=33.2441892644,126.5600381351&ll=33.2441892644,126.5600381351",33.2441892644,126.5600381351
2019-09-05 12:31:05,카페라우노,"https://maps.google.com/maps?q=37.4797885899,126.9809610895&ll=37.4797885899,126.9809610895",37.4797885899,126.9809610895
2019-09-05 12:33:04,금능해수욕장,"https://maps.google.com/maps?q=33.3898718391,126.2349769926&ll=33.3898718391,126.2349769926",33.3898718391,126.2349769926
2019-09-05 12:37:00,"Seoul, South Korea","https://maps.google.com/maps?q=37.5689,126.977&ll=37.5689,126.977",37.5689,126.977
2019-09-05 12:37:02,Yongin,"https://maps.google.com/maps?q=37.2361,127.201&ll=37.2361,127.201",37.2361,127.201
2019-09-05 12:41:03,카멜리아 힐,"https://maps.google.com/maps?q=33.2898140384,126.3693270087&ll=33.2898140384,126.3693270087",33.2898140384,126.3693270087
2019-09-05 12:42:01,The Shore Hotel Jeju - 더쇼어호텔제주,"https://maps.google.com/maps?q=33.2444611007,126.4057144662&ll=33.2444611007,126.4057144662",33.2444611007,126.4057144662
2019-09-05 12:44:00,맛동산정우농장,"https://maps.google.com/maps?q=33.4606530219,126.4371778045&ll=33.4606530219,126.4371778045",33.4606530219,126.4371778045
2019-09-05 12:45:00,"Seoul, South Korea","https://maps.google.com/maps?q=37.5689,126.977&ll=37.5689,126.977",37.5689,126.977
2019-09-05 12:49:04,원종사거리,"https://maps.google.com/maps?q=37.5240614678,126.804456175&ll=37.5240614678,126.804456175",37.5240614678,126.804456175
2019-09-05 12:52:00,"Seoul, Korea","https://maps.google.com/maps?q=37.51502,127.01648&ll=37.51502,127.01648",37.51502,127.01648
2019-09-05 12:54:05,동탄,"https://maps.google.com/maps?q=37.2064132,127.0737397&ll=37.2064132,127.0737397",37.2064132,127.0737397
2019-09-05 12:55:00,원효대교,"https://maps.google.com/maps?q=37.5270387502,126.9456911087&ll=37.5270387502,126.9456911087",37.5270387502,126.9456911087
2019-09-05 12:59:03,광치기해변,"https://maps.google.com/maps?q=33.451815815,126.9239919539&ll=33.451815815,126.9239919539",33.451815815,126.9239919539
2019-09-05 12:59:04,주네가네 키친&카페,"https://maps.google.com/maps?q=33.5563104993,126.8066401316&ll=33.5563104993,126.8066401316",33.5563104993,126.8066401316
2019-09-05 13:00:05,본본제주,"https://maps.google.com/maps?q=33.2674956121,126.3157663629&ll=33.2674956121,126.3157663629",33.2674956121,126.3157663629
2019-09-05 13:02:00,동탄 파라곤,"https://maps.google.com/maps?q=37.2036989085,127.0722147326&ll=37.2036989085,127.0722147326",37.2036989085,127.0722147326
2019-09-05 13:07:00,제주 함덕 서우봉 해변,"https://maps.google.com/maps?q=33.5427206966,126.6691673662&ll=33.5427206966,126.6691673662",33.5427206966,126.6691673662
2019-09-05 13:08:01,"우도 牛岛 Udo Island, South Korea","https://maps.google.com/maps?q=None,None&ll=None,None",None,None
2019-09-05 13:10:05,Harmduck Beach in Jeju Island,"https://maps.google.com/maps?q=33.5431936825,126.6693120628&ll=33.5431936825,126.6693120628",33.5431936825,126.6693120628
2019-09-05 13:13:03,기흥  죽전휴게소,"https://maps.google.com/maps?q=37.332312656,127.104751058&ll=37.332312656,127.104751058",37.332312656,127.104751058
2019-09-05 13:13:05,Changwon,"https://maps.google.com/maps?q=35.2193,128.5733&ll=35.2193,128.5733",35.2193,128.5733
2019-09-05 13:14:02,연남동,"https://maps.google.com/maps?q=37.562205,126.9261783333&ll=37.562205,126.9261783333",37.562205,126.9261783333
2019-09-05 13:16:03,Kimscabin 킴스캐빈,"https://maps.google.com/maps?q=33.47440213,126.8866955067&ll=33.47440213,126.8866955067",33.47440213,126.8866955067
2019-09-05 13:21:00,Bucheon,"https://maps.google.com/maps?q=37.4988888889,126.7830555556&ll=37.4988888889,126.7830555556",37.4988888889,126.7830555556
2019-09-05 13:21:03,외돌개,"https://maps.google.com/maps?q=33.240776323,126.5471110792&ll=33.240776323,126.5471110792",33.240776323,126.5471110792
2019-09-05 13:23:00,아산시 우리집,"https://maps.google.com/maps?q=36.7842646642,127.0151991305&ll=36.7842646642,127.0151991305",36.7842646642,127.0151991305
2019-09-05 13:23:02,이 결혼 실화냐,"https://maps.google.com/maps?q=None,None&ll=None,None",None,None
2019-09-05 13:23:04,안양천 산책로,"https://maps.google.com/maps?q=37.478181907,126.8761575222&ll=37.478181907,126.8761575222",37.478181907,126.8761575222
2019-09-05 13:24:03,서울어디,"https://maps.google.com/maps?q=37.5456089884,126.8749838362&ll=37.5456089884,126.8749838362",37.5456089884,126.8749838362
2019-09-05 13:25:02,플루메리아,"https://maps.google.com/maps?q=33.477719056,126.354813532&ll=33.477719056,126.354813532",33.477719056,126.354813532
2019-09-05 13:26:05,동탄2에 산다,"https://maps.google.com/maps?q=37.2052778992,127.1118593216&ll=37.2052778992,127.1118593216",37.2052778992,127.1118593216
2019-09-05 13:30:04,적정온도,"https://maps.google.com/maps?q=34.8158176365,127.8288578975&ll=34.8158176365,127.8288578975",34.8158176365,127.8288578975
2019-09-05 13:30:04,예술의전당 한가람디자인미술관,"https://maps.google.com/maps?q=37.4801013539,127.0137114362&ll=37.4801013539,127.0137114362",37.4801013539,127.0137114362
2019-09-05 13:31:00,천지연폭포,"https://maps.google.com/maps?q=33.246928,126.554407&ll=33.246928,126.554407",33.246928,126.554407
2019-09-05 13:34:05,김포시 구래동,"https://maps.google.com/maps?q=37.6491689,126.6262074&ll=37.6491689,126.6262074",37.6491689,126.6262074
2019-09-05 13:35:03,시청역 근처 어딘가,"https://maps.google.com/maps?q=37.5588744,126.9779419&ll=37.5588744,126.9779419",37.5588744,126.9779419
2019-09-05 13:44:01,양산문화예술회관,"https://maps.google.com/maps?q=35.3337241309,129.0365359533&ll=35.3337241309,129.0365359533",35.3337241309,129.0365359533
2019-09-05 13:44:02,NOV;노브초콜릿 Handmade 100% Cacao,"https://maps.google.com/maps?q=36.7665167102,126.455064922&ll=36.7665167102,126.455064922",36.7665167102,126.455064922
2019-09-05 13:45:01,산본중심가,"https://maps.google.com/maps?q=37.3594920318,126.9317479548&ll=37.3594920318,126.9317479548",37.3594920318,126.9317479548
2019-09-05 13:45:04,Bucheon,"https://maps.google.com/maps?q=37.4988888889,126.7830555556&ll=37.4988888889,126.7830555556",37.4988888889,126.7830555556
2019-09-05 13:48:00,"Seoul, South Korea","https://maps.google.com/maps?q=37.5689,126.977&ll=37.5689,126.977",37.5689,126.977
2019-09-05 13:49:04,"Seoul, Korea","https://maps.google.com/maps?q=37.51502,127.01648&ll=37.51502,127.01648",37.51502,127.01648
2019-09-05 13:51:04,돈사돈 본관,"https://maps.google.com/maps?q=33.4808464545,126.4641707955&ll=33.4808464545,126.4641707955",33.4808464545,126.4641707955
2019-09-05 13:52:04,Yes24 Stage - 예스24 스테이지,"https://maps.google.com/maps?q=37.5827178636,127.0032727718&ll=37.5827178636,127.0032727718",37.5827178636,127.0032727718
2019-09-05 13:56:04,Jeju,"https://maps.google.com/maps?q=33.5097,126.522&ll=33.5097,126.522",33.5097,126.522
2019-09-05 13:58:04,제주시 애월읍 곽지리,"https://maps.google.com/maps?q=33.4527294486,126.308364434&ll=33.4527294486,126.308364434",33.4527294486,126.308364434
2019-09-05 13:59:00,성남아트센터 콘서트홀,"https://maps.google.com/maps?q=37.4031929725,127.1316220023&ll=37.4031929725,127.1316220023",37.4031929725,127.1316220023
2019-09-05 14:08:05,죽녹원,"https://maps.google.com/maps?q=35.3262932191,126.9863873919&ll=35.3262932191,126.9863873919",35.3262932191,126.9863873919
2019-09-05 14:16:01,강변북로,"https://maps.google.com/maps?q=37.5457382027,126.908913734&ll=37.5457382027,126.908913734",37.5457382027,126.908913734
2019-09-05 14:17:05,"Seoul, South Korea - 서울","https://maps.google.com/maps?q=37.4636860646,126.4426803589&ll=37.4636860646,126.4426803589",37.4636860646,126.4426803589
2019-09-05 14:24:04,CGV 신촌아트레온,"https://maps.google.com/maps?q=37.5562103706,126.9403948255&ll=37.5562103706,126.9403948255",37.5562103706,126.9403948255
2019-09-05 14:25:00,삼청동길 Samcheongdong Gil,"https://maps.google.com/maps?q=37.5838781919,126.9847043839&ll=37.5838781919,126.9847043839",37.5838781919,126.9847043839
2019-09-05 14:28:02,온천천 / 溫泉川 / Oncheoncheon River,"https://maps.google.com/maps?q=35.2095463257,129.078669548&ll=35.2095463257,129.078669548",35.2095463257,129.078669548
2019-09-05 14:28:02,소래포구역,"https://maps.google.com/maps?q=37.400966,126.733539&ll=37.400966,126.733539",37.400966,126.733539
2019-09-05 14:28:04,Seongnam,"https://maps.google.com/maps?q=37.41105,127.118&ll=37.41105,127.118",37.41105,127.118
2019-09-05 14:29:05,Jeju-do,"https://maps.google.com/maps?q=33.4597558033,126.33557443&ll=33.4597558033,126.33557443",33.4597558033,126.33557443
2019-09-05 14:32:04,내포신도시,"https://maps.google.com/maps?q=36.6566942772,126.674783807&ll=36.6566942772,126.674783807",36.6566942772,126.674783807
2019-09-05 14:34:04,Jindo,"https://maps.google.com/maps?q=34.4869,126.263&ll=34.4869,126.263",34.4869,126.263
2019-09-05 14:36:04,"Seoul, South Korea","https://maps.google.com/maps?q=37.5689,126.977&ll=37.5689,126.977",37.5689,126.977
2019-09-05 14:38:03,"Seoul, Korea","https://maps.google.com/maps?q=37.51502,127.01648&ll=37.51502,127.01648",37.51502,127.01648
2019-09-05 14:40:04,성산일출봉 城山日出峰  Seongsan Ilchulbong,"https://maps.google.com/maps?q=33.462093995,126.936156027&ll=33.462093995,126.936156027",33.462093995,126.936156027
2019-09-05 14:45:01,韓國-濟州島,"https://maps.google.com/maps?q=33.5062142028,126.4923241705&ll=33.5062142028,126.4923241705",33.5062142028,126.4923241705
2019-09-05 14:46:05,Seogwipo,"https://maps.google.com/maps?q=33.2541,126.56&ll=33.2541,126.56",33.2541,126.56
2019-09-05 14:47:05,평택 어딘가,"https://maps.google.com/maps?q=36.991188,127.0901615&ll=36.991188,127.0901615",36.991188,127.0901615
2019-09-05 14:50:00,평촌 학원가,"https://maps.google.com/maps?q=37.3842897694,126.9598960775&ll=37.3842897694,126.9598960775",37.3842897694,126.9598960775
2019-09-05 14:50:03,우도 (Udo / 牛島),"https://maps.google.com/maps?q=33.5025006388,126.9436398636&ll=33.5025006388,126.9436398636",33.5025006388,126.9436398636
2019-09-05 15:02:04,다인오세아노 호텔,"https://maps.google.com/maps?q=33.472664,126.350464&ll=33.472664,126.350464",33.472664,126.350464
2019-09-05 15:04:01,Jeju,"https://maps.google.com/maps?q=33.5097,126.522&ll=33.5097,126.522",33.5097,126.522
2019-09-05 15:04:01,달리는 경부고속도로 위,"https://maps.google.com/maps?q=36.5178890674,127.4300062981&ll=36.5178890674,127.4300062981",36.5178890674,127.4300062981
2019-09-05 15:05:00,흙먹는고양이,"https://maps.google.com/maps?q=33.52326384,126.86151344&ll=33.52326384,126.86151344",33.52326384,126.86151344
2019-09-05 15:09:04,이매고등학교,"https://maps.google.com/maps?q=37.39185095,127.11593675&ll=37.39185095,127.11593675",37.39185095,127.11593675
2019-09-05 15:11:02,애월해안도로,"https://maps.google.com/maps?q=33.4749913225,126.3530396354&ll=33.4749913225,126.3530396354",33.4749913225,126.3530396354
2019-09-05 15:12:04,Yonsei University,"https://maps.google.com/maps?q=37.56027778,126.93694444&ll=37.56027778,126.93694444",37.56027778,126.93694444
2019-09-05 15:22:05,"Seoul, South Korea","https://maps.google.com/maps?q=37.5689,126.977&ll=37.5689,126.977",37.5689,126.977
2019-09-05 15:24:00,Hanyoung High School,"https://maps.google.com/maps?q=37.5487840876,127.1578476036&ll=37.5487840876,127.1578476036",37.5487840876,127.1578476036
2019-09-05 15:25:00,"Gwangju, South Korea","https://maps.google.com/maps?q=35.1547,126.916&ll=35.1547,126.916",35.1547,126.916
2019-09-05 15:25:02,"Seoul, Korea","https://maps.google.com/maps?q=37.51502,127.01648&ll=37.51502,127.01648",37.51502,127.01648
2019-09-05 15:26:01,Cheongdo,"https://maps.google.com/maps?q=35.6473,128.734&ll=35.6473,128.734",35.6473,128.734
2019-09-05 15:29:00,제주도,"https://maps.google.com/maps?q=33.5097,126.522&ll=33.5097,126.522",33.5097,126.522
2019-09-05 15:32:02,Gwangju,"https://maps.google.com/maps?q=35.159494,126.851287&ll=35.159494,126.851287",35.159494,126.851287
2019-09-05 15:34:02,마포 공덕동,"https://maps.google.com/maps?q=37.5464804333,126.9552105&ll=37.5464804333,126.9552105",37.5464804333,126.9552105
2019-09-05 15:45:04,제주도,"https://maps.google.com/maps?q=33.5097,126.522&ll=33.5097,126.522",33.5097,126.522
2019-09-05 15:45:04,범계역,"https://maps.google.com/maps?q=37.38965,126.9506138889&ll=37.38965,126.9506138889",37.38965,126.9506138889
2019-09-05 15:47:05,성수동,"https://maps.google.com/maps?q=37.54411715,127.0676640389&ll=37.54411715,127.0676640389",37.54411715,127.0676640389
2019-09-05 15:55:02,볼스카페,"https://maps.google.com/maps?q=33.2532661641,126.4425336757&ll=33.2532661641,126.4425336757",33.2532661641,126.4425336757
2019-09-05 16:07:04,카페시바,"https://maps.google.com/maps?q=33.4554565601,126.3482859264&ll=33.4554565601,126.3482859264",33.4554565601,126.3482859264
2019-09-05 16:12:05,Seogwipo,"https://maps.google.com/maps?q=33.2541,126.56&ll=33.2541,126.56",33.2541,126.56
2019-09-05 16:32:03,Ansan,"https://maps.google.com/maps?q=37.3236,126.822&ll=37.3236,126.822",37.3236,126.822
2019-09-05 16:41:02,"Seoul, South Korea","https://maps.google.com/maps?q=37.5689,126.977&ll=37.5689,126.977",37.5689,126.977
2019-09-05 16:46:05,Suvarnabhumi Airport,"https://maps.google.com/maps?q=13.681111,100.747222&ll=13.681111,100.747222",13.681111,100.747222
2019-09-05 17:11:01,김포공항 제주행 비행기 안,"https://maps.google.com/maps?q=37.5570365965,126.8044631444&ll=37.5570365965,126.8044631444",37.5570365965,126.8044631444
2019-09-05 17:37:02,기장 일광해수욕장,"https://maps.google.com/maps?q=35.2007847,129.084746&ll=35.2007847,129.084746",35.2007847,129.084746
2019-09-05 17:59:05,애프터눈가든,"https://maps.google.com/maps?q=37.792876166,127.316902214&ll=37.792876166,127.316902214",37.792876166,127.316902214
2019-09-05 18:01:05,전라남도 순천 어딘가에서,"https://maps.google.com/maps?q=34.9502349,127.490516&ll=34.9502349,127.490516",34.9502349,127.490516
2019-09-05 18:04:03,Mokpo,"https://maps.google.com/maps?q=34.7936,126.389&ll=34.7936,126.389",34.7936,126.389
2019-09-05 18:30:04,野柳地質公園(예류지질공원),"https://maps.google.com/maps?q=25.2054024978,121.6902469623&ll=25.2054024978,121.6902469623",25.2054024978,121.6902469623
2019-09-05 19:09:02,"Denpasar, Bali, Indonesia","https://maps.google.com/maps?q=-8.6764,115.2153&ll=-8.6764,115.2153",-8.6764,115.2153
2019-09-05 19:52:00,Kansas City International Airport,"https://maps.google.com/maps?q=39.2943885929,-94.7193760202&ll=39.2943885929,-94.7193760202",39.2943885929,-94.7193760202
2019-09-05 20:50:05,일해수산,"https://maps.google.com/maps?q=35.1063154,126.4372395&ll=35.1063154,126.4372395",35.1063154,126.4372395
2019-09-05 21:01:00,달리는KTX,"https://maps.google.com/maps?q=35.1514235802,129.00571017&ll=35.1514235802,129.00571017",35.1514235802,129.00571017
2019-09-05 21:20:01,내침대 이불속,"https://maps.google.com/maps?q=37.613365438,127.094450484&ll=37.613365438,127.094450484",37.613365438,127.094450484
2019-09-05 21:25:01,환상의 섬 Jeju Island,"https://maps.google.com/maps?q=33.4859666133,126.4898666841&ll=33.4859666133,126.4898666841",33.4859666133,126.4898666841
2019-09-05 22:08:00,구리타워,"https://maps.google.com/maps?q=37.588905883,127.159877185&ll=37.588905883,127.159877185",37.588905883,127.159877185
2019-09-05 22:10:05,Harmduck Beach in Jeju Island,"https://maps.google.com/maps?q=33.5431936825,126.6693120628&ll=33.5431936825,126.6693120628",33.5431936825,126.6693120628
2019-09-05 22:14:03,제주901,"https://maps.google.com/maps?q=33.4528966786,126.4863587316&ll=33.4528966786,126.4863587316",33.4528966786,126.4863587316
2019-09-05 22:16:02,미레이나,"https://maps.google.com/maps?q=33.3522449,126.1828943&ll=33.3522449,126.1828943",33.3522449,126.1828943
2019-09-05 22:22:03,토예랑도자기공방,"https://maps.google.com/maps?q=33.4566956,126.3471623&ll=33.4566956,126.3471623",33.4566956,126.3471623
2019-09-05 22:28:01,우도 하고수동해수욕장,"https://maps.google.com/maps?q=33.5142101226,126.9576721915&ll=33.5142101226,126.9576721915",33.5142101226,126.9576721915
2019-09-05 22:29:04,별이네펫,"https://maps.google.com/maps?q=37.7055410201,127.2017200291&ll=37.7055410201,127.2017200291",37.7055410201,127.2017200291
2019-09-05 22:34:00,"Seoul, South Korea","https://maps.google.com/maps?q=37.5689,126.977&ll=37.5689,126.977",37.5689,126.977
2019-09-05 22:37:02,로이앤메이,"https://maps.google.com/maps?q=33.409502767,126.9008896567&ll=33.409502767,126.9008896567",33.409502767,126.9008896567
2019-09-05 22:44:02,Yeouido,"https://maps.google.com/maps?q=37.526575,126.922989&ll=37.526575,126.922989",37.526575,126.922989
2019-09-05 22:53:03,"Xuhui, Shanghai","https://maps.google.com/maps?q=31.1172,121.43&ll=31.1172,121.43",31.1172,121.43
2019-09-05 23:06:02,Aratrium,"https://maps.google.com/maps?q=35.1549761843,129.1468546249&ll=35.1549761843,129.1468546249",35.1549761843,129.1468546249
2019-09-05 23:08:05,"Ulsan, Korea","https://maps.google.com/maps?q=35.5372,129.317&ll=35.5372,129.317",35.5372,129.317
2019-09-05 23:11:03,골목카페 옥수,"https://maps.google.com/maps?q=33.4398516201,126.3800538434&ll=33.4398516201,126.3800538434",33.4398516201,126.3800538434
2019-09-05 23:13:03,Seogwipo,"https://maps.google.com/maps?q=33.2541,126.56&ll=33.2541,126.56",33.2541,126.56
2019-09-05 23:14:02,Gimpo International Airport - 金浦国际机场 - 김포공항,"https://maps.google.com/maps?q=37.5663445497,126.8013426898&ll=37.5663445497,126.8013426898",37.5663445497,126.8013426898
2019-09-05 23:18:05,삼화지구,"https://maps.google.com/maps?q=33.5161392834,126.5756118921&ll=33.5161392834,126.5756118921",33.5161392834,126.5756118921
2019-09-05 23:19:03,우도 (Udo / 牛島),"https://maps.google.com/maps?q=33.5025006388,126.9436398636&ll=33.5025006388,126.9436398636",33.5025006388,126.9436398636
2019-09-05 23:20:04,Seogwipo,"https://maps.google.com/maps?q=33.2541,126.56&ll=33.2541,126.56",33.2541,126.56
2019-09-05 23:21:05,제주KBS,"https://maps.google.com/maps?q=33.488845432,126.5194787526&ll=33.488845432,126.5194787526",33.488845432,126.5194787526
2019-09-05 23:24:00,푸른수목원,"https://maps.google.com/maps?q=37.4828513304,126.8237964839&ll=37.4828513304,126.8237964839",37.4828513304,126.8237964839
2019-09-05 23:29:03,면일초등학교,"https://maps.google.com/maps?q=37.5914803583,127.0996376649&ll=37.5914803583,127.0996376649",37.5914803583,127.0996376649
2019-09-05 23:31:03,Yeouido,"https://maps.google.com/maps?q=37.526575,126.922989&ll=37.526575,126.922989",37.526575,126.922989
2019-09-05 23:34:05,제주도 애월읍,"https://maps.google.com/maps?q=33.4775373571,126.3626555382&ll=33.4775373571,126.3626555382",33.4775373571,126.3626555382
2019-09-05 23:36:00,동리,"https://maps.google.com/maps?q=35.8367279126,129.2091234719&ll=35.8367279126,129.2091234719",35.8367279126,129.2091234719
2019-09-05 23:36:03,Jeonju,"https://maps.google.com/maps?q=35.8219,127.149&ll=35.8219,127.149",35.8219,127.149
2019-09-05 23:41:05,밤부컬렉션,"https://maps.google.com/maps?q=37.5122037617,127.0495217876&ll=37.5122037617,127.0495217876",37.5122037617,127.0495217876
2019-09-05 23:44:01,원흥지구,"https://maps.google.com/maps?q=37.6281412843,126.86926911&ll=37.6281412843,126.86926911",37.6281412843,126.86926911
2019-09-05 23:46:02,ORA Country Club - 오라 컨트리클럽,"https://maps.google.com/maps?q=33.4480578183,126.5137267113&ll=33.4480578183,126.5137267113",33.4480578183,126.5137267113
2019-09-05 23:51:03,인천공항 Incheon Airport,"https://maps.google.com/maps?q=37.4486940215,126.4511619873&ll=37.4486940215,126.4511619873",37.4486940215,126.4511619873
2019-09-06 00:06:00,Jumunjin,"https://maps.google.com/maps?q=37.8870092909,128.8292203766&ll=37.8870092909,128.8292203766",37.8870092909,128.8292203766
2019-09-06 00:06:01,Busan,"https://maps.google.com/maps?q=35.1,129.0402777778&ll=35.1,129.0402777778",35.1,129.0402777778
2019-09-06 00:12:05,안동 만휴정,"https://maps.google.com/maps?q=36.5656,128.725&ll=36.5656,128.725",36.5656,128.725
2019-09-06 00:18:03,"Seoul, South Korea","https://maps.google.com/maps?q=37.5689,126.977&ll=37.5689,126.977",37.5689,126.977
2019-09-06 00:22:00,골목카페 옥수,"https://maps.google.com/maps?q=33.4398516201,126.3800538434&ll=33.4398516201,126.3800538434",33.4398516201,126.3800538434
2019-09-06 00:23:04,Paju,"https://maps.google.com/maps?q=37.7611,126.775&ll=37.7611,126.775",37.7611,126.775
2019-09-06 00:24:02,공릉역,"https://maps.google.com/maps?q=37.6255277778,127.0729722222&ll=37.6255277778,127.0729722222",37.6255277778,127.0729722222
2019-09-06 00:28:04,행정안전부,"https://maps.google.com/maps?q=36.4823449,127.2605623&ll=36.4823449,127.2605623",36.4823449,127.2605623
2019-09-06 00:31:05,검단 온누리병원,"https://maps.google.com/maps?q=37.60273879,126.65438961&ll=37.60273879,126.65438961",37.60273879,126.65438961
2019-09-06 00:36:05,신안군,"https://maps.google.com/maps?q=34.8275,126.1011111111&ll=34.8275,126.1011111111",34.8275,126.1011111111
2019-09-06 00:40:04,보길도,"https://maps.google.com/maps?q=34.163963772,126.6022120162&ll=34.163963772,126.6022120162",34.163963772,126.6022120162
2019-09-06 00:42:01,청라,"https://maps.google.com/maps?q=37.5177077824,127.0437287197&ll=37.5177077824,127.0437287197",37.5177077824,127.0437287197
2019-09-06 00:42:01,마인게터 cafe,"https://maps.google.com/maps?q=34.789988585,126.383508528&ll=34.789988585,126.383508528",34.789988585,126.383508528
2019-09-06 00:44:02,Jeju-do,"https://maps.google.com/maps?q=33.4597558033,126.33557443&ll=33.4597558033,126.33557443",33.4597558033,126.33557443
2019-09-06 00:47:02,제주동막골펜션,"https://maps.google.com/maps?q=33.2834454,126.3230127&ll=33.2834454,126.3230127",33.2834454,126.3230127
2019-09-06 00:47:05,Jeju,"https://maps.google.com/maps?q=33.5097,126.522&ll=33.5097,126.522",33.5097,126.522
2019-09-06 00:48:04,흑산도,"https://maps.google.com/maps?q=34.6666666667,125.4166666667&ll=34.6666666667,125.4166666667",34.6666666667,125.4166666667
2019-09-06 00:51:02,One and only - 원앤온리 제주,"https://maps.google.com/maps?q=33.23921396,126.31910948&ll=33.23921396,126.31910948",33.23921396,126.31910948
2019-09-06 00:51:04,Port1902,"https://maps.google.com/maps?q=35.1682370864,129.1969241202&ll=35.1682370864,129.1969241202",35.1682370864,129.1969241202
2019-09-06 00:52:03,Sangju,"https://maps.google.com/maps?q=36.4157,128.1627&ll=36.4157,128.1627",36.4157,128.1627
2019-09-06 00:53:00,신포 청년몰 눈꽃마을,"https://maps.google.com/maps?q=37.4716575719,126.6279926855&ll=37.4716575719,126.6279926855",37.4716575719,126.6279926855
2019-09-06 00:53:00,사려니숲길입구 (붉은오름),"https://maps.google.com/maps?q=33.39546409,126.68408075&ll=33.39546409,126.68408075",33.39546409,126.68408075
2019-09-06 00:53:02,바다는 김녕,"https://maps.google.com/maps?q=33.5584068,126.755016&ll=33.5584068,126.755016",33.5584068,126.755016
2019-09-06 00:53:05,예크생물원,"https://maps.google.com/maps?q=37.3013381838,127.5516875938&ll=37.3013381838,127.5516875938",37.3013381838,127.5516875938
2019-09-06 00:55:02,콩나물국밥,"https://maps.google.com/maps?q=35.865534,128.587093&ll=35.865534,128.587093",35.865534,128.587093
2019-09-06 00:57:00,제주도,"https://maps.google.com/maps?q=33.5097,126.522&ll=33.5097,126.522",33.5097,126.522
2019-09-06 00:57:02,전북 군산시,"https://maps.google.com/maps?q=35.9765692942,126.7315839319&ll=35.9765692942,126.7315839319",35.9765692942,126.7315839319
2019-09-06 00:59:01,폭스바겐 유카로오토모빌 제주전시장,"https://maps.google.com/maps?q=33.493447,126.505979&ll=33.493447,126.505979",33.493447,126.505979
2019-09-06 01:00:02,Gangnam Seoul Korea,"https://maps.google.com/maps?q=37.5003008727,127.0265772745&ll=37.5003008727,127.0265772745",37.5003008727,127.0265772745
2019-09-06 01:00:05,프롬유,"https://maps.google.com/maps?q=37.4707761534,126.6266502233&ll=37.4707761534,126.6266502233",37.4707761534,126.6266502233
2019-09-06 01:01:04,황금박쥐캠핑장,"https://maps.google.com/maps?q=37.6794657968,127.6451802516&ll=37.6794657968,127.6451802516",37.6794657968,127.6451802516
2019-09-06 01:01:04,밥cafe반하다,"https://maps.google.com/maps?q=35.2808035018,127.2925114645&ll=35.2808035018,127.2925114645",35.2808035018,127.2925114645
2019-09-06 01:02:00,전라남도 순천시,"https://maps.google.com/maps?q=37.5282498007,126.9271212995&ll=37.5282498007,126.9271212995",37.5282498007,126.9271212995
2019-09-06 01:05:04,Jeju-do,"https://maps.google.com/maps?q=33.4597558033,126.33557443&ll=33.4597558033,126.33557443",33.4597558033,126.33557443
2019-09-06 01:06:00,제주도,"https://maps.google.com/maps?q=33.5097,126.522&ll=33.5097,126.522",33.5097,126.522
2019-09-06 01:11:00,쓰쓰카페,"https://maps.google.com/maps?q=33.3383107848,126.1835319137&ll=33.3383107848,126.1835319137",33.3383107848,126.1835319137
2019-09-06 01:11:01,금능해수욕장,"https://maps.google.com/maps?q=33.3898718391,126.2349769926&ll=33.3898718391,126.2349769926",33.3898718391,126.2349769926
2019-09-06 01:11:03,우도로93,"https://maps.google.com/maps?q=33.5008226815,126.9538664818&ll=33.5008226815,126.9538664818",33.5008226815,126.9538664818
2019-09-06 01:11:05,앨리스의 별별책방,"https://maps.google.com/maps?q=36.6440441375,127.4245978575&ll=36.6440441375,127.4245978575",36.6440441375,127.4245978575
2019-09-06 01:11:05,인천종합터미널 버스정류장,"https://maps.google.com/maps?q=37.4416858387,126.7011770349&ll=37.4416858387,126.7011770349",37.4416858387,126.7011770349
2019-09-06 01:12:04,Grand Walkerhill Seoul 그랜드 워커힐 서울,"https://maps.google.com/maps?q=37.5550396458,127.1105361077&ll=37.5550396458,127.1105361077",37.5550396458,127.1105361077
2019-09-06 01:13:01,가락동 (송파구),"https://maps.google.com/maps?q=37.5,127.117&ll=37.5,127.117",37.5,127.117
2019-09-06 01:13:03,황카페,"https://maps.google.com/maps?q=37.5665619,126.9301325&ll=37.5665619,126.9301325",37.5665619,126.9301325
2019-09-06 01:14:00,애월해안도로,"https://maps.google.com/maps?q=33.4749913225,126.3530396354&ll=33.4749913225,126.3530396354",33.4749913225,126.3530396354
2019-09-06 01:14:03,오산버스폰궐동점,"https://maps.google.com/maps?q=37.1583997563,127.0645373119&ll=37.1583997563,127.0645373119",37.1583997563,127.0645373119
2019-09-06 01:14:04,서울강남구,"https://maps.google.com/maps?q=37.5004864717,127.027836023&ll=37.5004864717,127.027836023",37.5004864717,127.027836023
2019-09-06 01:14:04,리베폴플라워,"https://maps.google.com/maps?q=37.4536,126.732&ll=37.4536,126.732",37.4536,126.732
2019-09-06 01:15:01,한동리 화수목,"https://maps.google.com/maps?q=33.5406166816,126.8307450414&ll=33.5406166816,126.8307450414",33.5406166816,126.8307450414
2019-09-06 01:15:02,Hwaseong,"https://maps.google.com/maps?q=37.1995,126.831&ll=37.1995,126.831",37.1995,126.831
2019-09-06 01:16:03,제주도 하도리,"https://maps.google.com/maps?q=33.5249893431,126.8642140366&ll=33.5249893431,126.8642140366",33.5249893431,126.8642140366
2019-09-06 01:16:04,인헌동 어딘가,"https://maps.google.com/maps?q=37.4737935174,126.9667682949&ll=37.4737935174,126.9667682949",37.4737935174,126.9667682949
